stop_id,stop_code,stop_name,stop_desc,stop_lat,stop_lon,zone_id,stop_url,location_type,platform_code,parent_station
518_01,,１条通北７丁目,,44.0681466666667,143.532319047619,518_01,,0,,
518_02,,１条通北７丁目,,44.0678466666667,143.532328571428,518_02,,0,,
508_01,,２条通,,43.80586,143.895517142857,508_01,,0,,
508_02,,２条通,,43.80634,143.894928571429,508_02,,0,,
522_01,,２条通北２丁目,,44.05881,143.5304,522_01,,0,,
522_02,,２条通北２丁目,,44.0587433333333,143.530506666666,522_02,,0,,
524_01,,２条通北３丁目,,44.06011,143.5312,524_01,,0,,
524_02,,２条通北３丁目,,44.0600833333333,143.53128952381,524_02,,0,,
526_01,,２条通北５丁目,,44.06258,143.532734285714,526_01,,0,,
526_02,,２条通北５丁目,,44.0622766666667,143.53270952381,526_02,,0,,
528_01,,２条通北６丁目,,44.0646583333333,143.5332,528_01,,0,,
528_02,,２条通北６丁目,,44.0647,143.533361904762,528_02,,0,,
510_01,,４条通,,43.7997416666667,143.885657142857,510_01,,0,,
510_02,,４条通,,43.7999833333333,143.88660952381,510_02,,0,,
530_01,,４条西２丁目,,43.80556,143.892634285714,530_01,,0,,
532_01,,４条西４丁目,,43.80367,143.8908,532_01,,0,,
532_02,,４条西４丁目,,43.8031449999999,143.890805714286,532_02,,0,,
532_03,,４条西４丁目,,43.8035361155158,143.89028324149,532_03,,0,,
534_01,,４条東４丁目,,43.80968,143.896625714285,534_01,,0,,
534_02,,４条東４丁目,,43.80983,143.896968571429,534_02,,0,,
548_01,,７丁目会館,,44.33251,143.3634,548_01,,0,,
548_02,,７丁目会館,,44.3326516666667,143.363552380952,548_02,,0,,
556_01,,ＮＨＫ,,43.81111,143.8852,556_01,,0,,
556_02,,ＮＨＫ,,43.81133,143.885148571429,556_02,,0,,
1000_01,,相内,,43.7969666666667,143.754880952381,1000_01,,0,,
1000_02,,相内,,43.7973416666667,143.755766666667,1000_02,,0,,
1001_01,,相内小学校,,43.7959316666667,143.749076190476,1001_01,,0,,
1001_02,,相内小学校,,43.79614,143.74919047619,1001_02,,0,,
1004_01,,相内神社,,43.7999216666667,143.765666666667,1004_01,,0,,
1004_02,,相内神社,,43.800355,143.766876190476,1004_02,,0,,
1012_01,,アカシヤ団地入口,,43.82309,143.887322857143,1012_01,,0,,
1012_02,,アカシヤ団地入口,,43.823175,143.88762,1012_02,,0,,
1016_01,,秋平,,44.2462666666667,143.494433333333,1016_01,,0,,
1016_02,,秋平,,44.2466833333334,143.494166666667,1016_02,,0,,
6218_01,,アクロス北見,,43.80585,143.90612,6218_01,,0,,
6218_02,,アクロス北見,,43.805965,143.905994285714,6218_02,,0,,
2820_01,,旭１号線,,43.78128,143.606265714286,2820_01,,0,,
2820_02,,旭１号線,,43.78154,143.605991428571,2820_02,,0,,
202_01,,旭２号線,,43.781735,143.597431428571,202_01,,0,,
202_02,,旭２号線,,43.781935,143.59758,202_02,,0,,
1022_01,,旭２区,,43.78239,143.601437142857,1022_01,,0,,
1022_02,,旭２区,,43.782205,143.602042857143,1022_02,,0,,
203_01,,旭３号線,,43.779625,143.591228571429,203_01,,0,,
203_02,,旭３号線,,43.7803350000001,143.592948571429,203_02,,0,,
1028_01,,旭東町,,43.78251,143.62949047619,1028_01,,0,,
1028_02,,旭東町,,43.7828450000001,143.63042,1028_02,,0,,
1032_01,,朝日町中央,,43.811535,143.911711428571,1032_01,,0,,
1032_02,,朝日町中央,,43.81197,143.911808571429,1032_02,,0,,
8130_01,,旭南団地入口,,43.7787233333333,143.615058095237,8130_01,,0,,
8130_02,,旭南団地入口,,43.7782383333333,143.615138095238,8130_02,,0,,
9222_01,,安住２２号線,,43.6551901433334,143.539596804762,9222_01,,0,,
9222_02,,安住２２号線,,43.6556151433333,143.539863471429,9222_02,,0,,
9523_01,,安住２３号線,,43.65186506,143.534252528571,9523_01,,0,,
9523_02,,安住２３号線,,43.65196506,143.5342811,9523_02,,0,,
225_01,,安住２５号線,,43.6461683333333,143.522980952381,225_01,,0,,
225_02,,安住２５号線,,43.646585,143.523676190476,225_02,,0,,
9326_01,,安住２６号線,,43.6440362166667,143.516576,9326_01,,0,,
9326_02,,安住２６号線,,43.64419455,143.516576,9326_02,,0,,
1034_01,,安住会館,,43.6488616666667,143.528742857143,1034_01,,0,,
1034_02,,安住会館,,43.6493116666667,143.529238095238,1034_02,,0,,
1036_01,,安海宅前,,43.8640616666667,144.07352,1036_01,,0,,
1036_02,,安海宅前,,43.863985,144.073323809524,1036_02,,0,,
3012_01,,イオン北見店,,43.809195,143.875,3012_01,,0,,
3012_02,,イオン北見店,,43.8094,143.87532,3012_02,,0,,
1202_01,,生田原,,43.92243,143.534004761905,1202_01,,0,,
1202_02,,生田原,,43.9223716666667,143.533804761905,1202_02,,0,,
1204_01,,生田原小学校,,43.9128966666667,143.535271428572,1204_01,,0,,
1204_02,,生田原小学校,,43.9121133333333,143.534842857143,1204_02,,0,,
1208_01,,泉第１公園入口,,43.804105,143.904862857143,1208_01,,0,,
1208_02,,泉第１公園入口,,43.8042350000001,143.904691428572,1208_02,,0,,
1212_01,,伊吹会館,,43.8991966666667,143.529104761905,1212_01,,0,,
1212_02,,伊吹会館,,43.8995383333333,143.529057142858,1212_02,,0,,
1214_01,,いわね大橋,,44.054715,143.536657142858,1214_01,,0,,
1216_01,,いわね団地,,44.05084,143.533357142857,1216_01,,0,,
2242_01,,運転免許試験場,,43.8064,143.8293,2242_01,,0,,
1402_01,,運動公園,,43.81788,143.901,1402_01,,0,,
1402_02,,運動公園,,43.817935,143.901188571429,1402_02,,0,,
8125_01,,運輸支局入口,,43.7982333333333,143.862766666667,8125_01,,0,,
8125_02,,運輸支局入口,,43.7984666666666,143.863157142857,8125_02,,0,,
1136_01,,えんがる温水プール,,44.0444,143.517295238095,1136_01,,0,,
1136_02,,えんがる温水プール,,44.044775,143.517228571429,1136_02,,0,,
1606_01,,遠軽中学校,,44.0655983333333,143.526785714285,1606_01,,0,,
1606_02,,遠軽中学校,,44.06544,143.527004761905,1606_02,,0,,
1691_01,,遠軽福路１丁目,,44.0479716666667,143.516947619047,1691_01,,0,,
1691_02,,遠軽福路１丁目,,44.0479133333333,143.516804761904,1691_02,,0,,
6844_01,,遠軽郵便局,,44.06089657,143.5239131,6844_01,,0,,
6844_02,,遠軽郵便局,,44.06119657,143.524275004762,6844_02,,0,,
1800_01,,大谷宅前,,43.8231253066667,143.846627547619,1800_01,,0,,
1800_02,,大谷宅前,,43.822980431,143.846593791417,1800_02,,0,,
204_01,,大富４号線,,43.7775583333333,143.585303809524,204_01,,0,,
204_02,,大富４号線,,43.778035,143.586311428571,204_02,,0,,
9205_01,,大富５号線,,43.7752842,143.578878928571,9205_01,,0,,
9205_02,,大富５号線,,43.7759392,143.580244642857,9205_02,,0,,
206_01,,大富６号線,,43.773155,143.572688571429,206_01,,0,,
206_02,,大富６号線,,43.7736683333333,143.573700000001,206_02,,0,,
9207_01,,大富７号線,,43.77168557,143.566002142857,9207_01,,0,,
9207_02,,大富７号線,,43.7720605700001,143.567379285715,9207_02,,0,,
9208_01,,大富８号線,,43.76988334,143.5593599,9208_01,,0,,
9208_02,,大富８号線,,43.7707183400001,143.560628471429,9208_02,,0,,
1808_01,,大曲,,43.8786466666667,143.900295238095,1808_01,,0,,
1810_01,,大町,,43.816635,143.908351428571,1810_01,,0,,
1810_02,,大町,,43.81608,143.90778,1810_02,,0,,
1812_01,,大町郵便局,,43.8142183333333,143.904942857143,1812_01,,0,,
1812_02,,大町郵便局,,43.81411,143.9052,1812_02,,0,,
1814_01,,置戸,,43.67696,143.5893,1814_01,,0,,
544_01,,置戸卸売市場,,43.67879,143.5921,544_01,,0,,
544_02,,置戸卸売市場,,43.678885,143.592082857143,544_02,,0,,
1818_01,,置戸中学校入口,,43.669165,143.572974285714,1818_01,,0,,
1818_02,,置戸中学校入口,,43.6694,143.573071428571,1818_02,,0,,
9805_01,,置戸町役場,,43.6756670466667,143.586019219048,9805_01,,0,,
9805_02,,置戸町役場,,43.67592038,143.586228742857,9805_02,,0,,
8303_01,,オホーツク海病院,,43.86367,143.9287,8303_01,,0,,
1820_01,,オホーツクタワー入口,,44.3290466666667,143.369342857143,1820_01,,0,,
1820_02,,オホーツクタワー入口,,44.329055,143.3696,1820_02,,0,,
4862_01,,オホーツクドライブイン,,43.8880833333333,143.990533333333,4862_01,,0,,
4862_02,,オホーツクドライブイン,,43.8876,143.9882,4862_02,,0,,
1671_01,,オホーツク紋別空港,,44.3079216666667,143.408452380952,1671_01,,0,,
1671_02,,オホーツク紋別空港,,44.307655,143.409319047619,1671_02,,0,,
1692_01,,オホーツク流氷公園前,,44.3198983333333,143.386404761905,1692_01,,0,,
1692_02,,オホーツク流氷公園前,,44.3199483333333,143.386728571429,1692_02,,0,,
1830_01,,卸町１丁目,,43.80681,143.8379,1830_01,,0,,
1830_02,,卸町１丁目,,43.807145,143.839374285715,1830_02,,0,,
1826_01,,卸売団地,,43.80544,143.8326,1826_01,,0,,
1834_01,,温根湯,,43.75848,143.5086,1834_01,,0,,
1834_02,,温根湯,,43.75857,143.508605714286,1834_02,,0,,
1393_01,,おんねゆ診療所,,43.75713,143.506502857143,1393_01,,0,,
1393_02,,おんねゆ診療所,,43.75718,143.5064,1393_02,,0,,
3408_01,,温根湯スポーツセンター,,43.75628,143.5139,3408_01,,0,,
3408_02,,温根湯スポーツセンター,,43.7566600000001,143.514894285715,3408_02,,0,,
1523_01,,温根湯西５条,,43.75358,143.5038,1523_01,,0,,
1523_02,,温根湯西５条,,43.753755,143.503834285714,1523_02,,0,,
8075_01,,温根湯農協,,43.7545,143.5071,8075_01,,0,,
8075_02,,温根湯農協,,43.75463,143.50718,8075_02,,0,,
1653_01,,温根湯東２条,,43.75706,143.5097,1653_01,,0,,
1653_02,,温根湯東２条,,43.757065,143.509808571429,1653_02,,0,,
2006_01,,開盛,,44.0946,143.531634285714,2006_01,,0,,
2006_02,,開盛,,44.0951383333333,143.53199047619,2006_02,,0,,
2010_01,,開盛市街,,44.09662,143.5332,2010_01,,0,,
2010_02,,開盛市街,,44.0969366666667,143.5338,2010_02,,0,,
2014_01,,開発事務所,,44.0695,143.5292,2014_01,,0,,
2014_02,,開発事務所,,44.0693833333333,143.529438095238,2014_02,,0,,
6220_01,,香りゃんせ公園入口,,43.80916,143.909317142857,6220_01,,0,,
6220_02,,香りゃんせ公園入口,,43.809225,143.909151428571,6220_02,,0,,
9820_01,,河岸公園,,43.70131,144.025084238095,9820_01,,0,,
9820_02,,河岸公園,,43.701235,144.024989,9820_02,,0,,
2076_01,,北見カーリングホール,,43.824985,143.907014285714,2076_01,,0,,
2076_02,,北見カーリングホール,,43.824925,143.907117142857,2076_02,,0,,
2078_01,,学園通,,43.80899,143.890411428571,2078_01,,0,,
2078_02,,学園通,,43.8090800000001,143.890611428572,2078_02,,0,,
2078_03,,学園通,,43.80884,143.889708571429,2078_03,,0,,
2078_04,,学園通,,43.80882,143.89,2078_04,,0,,
2226_01,,学田３丁目,,44.0819483333334,143.53187047619,2226_01,,0,,
2226_02,,学田３丁目,,44.08146,143.532068571429,2226_02,,0,,
2090_01,,学友橋,,43.68129,143.5971,2090_01,,0,,
2090_02,,学友橋,,43.68143,143.597128571429,2090_02,,0,,
2018_01,,花月町,,43.813975,143.879574285714,2018_01,,0,,
2018_02,,花月町,,43.8142000000001,143.8795,2018_02,,0,,
4022_01,,梶田の沢入口,,43.8680666666667,143.513352380952,4022_01,,0,,
4022_02,,梶田の沢入口,,43.8680916666667,143.513123809524,4022_02,,0,,
4028_01,,柏町１号,,43.7149316666667,144.02419047619,4028_01,,0,,
4028_02,,柏町１号,,43.7155100000001,144.023348571428,4028_02,,0,,
7236_01,,風の子公園,,43.801115,143.89678,7236_01,,0,,
7236_02,,風の子公園,,43.8016650000001,143.897071428571,7236_02,,0,,
2022_01,,家畜市場,,43.8857716666667,143.99939047619,2022_01,,0,,
2022_02,,家畜市場,,43.88553,143.99940952381,2022_02,,0,,
2000_01,,活汲,,43.7454416666668,144.053737142858,2000_01,,0,,
2000_02,,活汲,,43.7449383333333,144.053203809524,2000_02,,0,,
2002_01,,活汲第一,,43.7395749999999,144.050195238096,2002_01,,0,,
2002_02,,活汲第一,,43.7401083333333,144.050477142857,2002_02,,0,,
347_01,,活汲４７線,,43.7567533333333,144.066677142857,347_01,,0,,
347_02,,活汲４７線,,43.7573366666667,144.066686666667,347_02,,0,,
348_01,,活汲４８線,,43.7533583333333,144.063388571429,348_01,,0,,
348_02,,活汲４８線,,43.753945,144.064019047619,348_02,,0,,
349_01,,活汲４９線,,43.75013,144.058,349_01,,0,,
349_02,,活汲４９線,,43.7506266666667,144.058438095238,349_02,,0,,
352_01,,活汲５２線,,43.7378983333333,144.045956190476,352_01,,0,,
352_02,,活汲５２線,,43.7381933333333,144.046348571429,352_02,,0,,
354_01,,活汲５４線,,43.73244,144.034842857143,354_01,,0,,
354_02,,活汲５４線,,43.7326333333333,144.034816190476,354_02,,0,,
2028_01,,勝山,,43.63668,143.5077,2028_01,,0,,
2028_02,,勝山,,43.6371,143.508237142857,2028_02,,0,,
2030_01,,勝山温泉,,43.63235,143.4937,2030_01,,0,,
2026_01,,勝山中央,,43.638645,143.508431428571,2026_01,,0,,
2026_02,,勝山中央,,43.638535,143.508225714286,2026_02,,0,,
2032_01,,勝山橋,,43.64078,143.5072,2032_01,,0,,
2032_02,,勝山橋,,43.64084,143.507194285714,2032_02,,0,,
6824_01,,桂町１丁目,,43.807135,143.86204,6824_01,,0,,
6824_02,,桂町１丁目,,43.807145,143.86232,6824_02,,0,,
2034_01,,加藤牧場,,44.22892,143.545811428571,2034_01,,0,,
2034_02,,加藤牧場,,44.22912,143.545895238095,2034_02,,0,,
2258_01,,金山通,,43.9168683333333,143.53780952381,2258_01,,0,,
2258_02,,金山通,,43.9168766666667,143.537542857143,2258_02,,0,,
2040_01,,上鉱山,,43.68548,143.6074,2040_01,,0,,
2040_02,,上鉱山,,43.685575,143.607394285714,2040_02,,0,,
6209_01,,東武東口,,43.8415945941555,143.929480691528,6209_01,,0,,
2044_01,,上常呂,,43.75618,143.837852380952,2044_01,,0,,
2044_02,,上常呂,,43.756795,143.83862,2044_02,,0,,
9210_01,,上常呂１０号線,,43.75406221,143.8341047,9210_01,,0,,
9210_02,,上常呂１０号線,,43.7547738766667,143.835078033334,9210_02,,0,,
9411_01,,上常呂１１号線,,43.75033339,143.8276883,9411_01,,0,,
9411_02,,上常呂１１号線,,43.75086339,143.828716871429,9411_02,,0,,
9312_01,,上常呂１２号線,,43.7480590166667,143.820650495238,9312_01,,0,,
9312_02,,上常呂１２号線,,43.74858235,143.821920971429,9312_02,,0,,
9213_01,,上常呂１３号線,,43.74478279,143.814208414286,9213_01,,0,,
9213_02,,上常呂１３号線,,43.74573779,143.815259842857,9213_02,,0,,
9214_01,,上常呂１４号線,,43.74216954,143.8072576,9214_01,,0,,
9214_02,,上常呂１４号線,,43.74274954,143.809109028572,9214_02,,0,,
9315_01,,上常呂１５号線,,43.74132002,143.8022634,9315_01,,0,,
9315_02,,上常呂１５号線,,43.74146502,143.802377685714,9315_02,,0,,
2046_01,,上常呂小学校,,43.75975,143.844195238095,2046_01,,0,,
2046_02,,上常呂小学校,,43.75995,143.844351428571,2046_02,,0,,
2054_01,,上美幌,,43.78808,144.08387047619,2054_01,,0,,
2054_02,,上美幌,,43.7884683333333,144.083961904762,2054_02,,0,,
2056_01,,上湧別,,44.1473383333333,143.56939047619,2056_01,,0,,
2056_02,,上湧別,,44.14723,143.569590476191,2056_02,,0,,
2206_01,,上湧別小学校,,44.144,143.567266666667,2206_01,,0,,
2206_02,,上湧別小学校,,44.1442,143.567628571429,2206_02,,0,,
2073_01,,川上,,43.5550816666667,143.718819047619,2073_01,,0,,
2072_01,,川西,,44.2191733333333,143.582419047619,2072_01,,0,,
2072_02,,川西,,44.2188566666667,143.583828571429,2072_02,,0,,
2062_01,,川西３線,,44.2173683333333,143.589809523809,2062_01,,0,,
2062_02,,川西３線,,44.2173766666666,143.589533333334,2062_02,,0,,
2064_01,,川西５線,,44.2207866666667,143.577319047619,2064_01,,0,,
2064_02,,川西５線,,44.22097,143.577395238095,2064_02,,0,,
2066_01,,川西６線,,44.2232766666666,143.569723809524,2066_01,,0,,
2066_02,,川西６線,,44.223085,143.570828571429,2066_02,,0,,
2068_01,,川西７線,,44.2252733333333,143.563538095238,2068_01,,0,,
2068_02,,川西７線,,44.22539,143.563823809524,2068_02,,0,,
2070_01,,川西８線,,44.2270766666666,143.557642857143,2070_01,,0,,
2070_02,,川西８線,,44.227185,143.557957142858,2070_02,,0,,
2224_01,,北６線,,43.829625,143.877871428572,2224_01,,0,,
2224_02,,北６線,,43.829095,143.877408571429,2224_02,,0,,
6836_01,,北網圏文化センター,,43.81616,143.902757142857,6836_01,,0,,
6836_02,,北網圏文化センター,,43.8162450000001,143.903031428572,6836_02,,0,,
9407_01,,北上７号線,,43.76300718,143.8525312,9407_01,,0,,
9407_02,,北上７号線,,43.7643371800001,143.8548112,9407_02,,0,,
9408_01,,北上８号線,,43.76101929,143.8484805,9408_01,,0,,
9408_02,,北上８号線,,43.76114429,143.848406214286,9408_02,,0,,
2234_01,,北小学校,,43.8124700000001,143.875994285714,2234_01,,0,,
2234_02,,北小学校,,43.81122,143.876365714286,2234_02,,0,,
6818_01,,北苑寮,,43.825625,143.902145714286,6818_01,,0,,
6818_02,,北苑寮,,43.82551,143.902117142857,6818_02,,0,,
2816_01,,北地区トレセン,,43.818435,143.868334285714,2816_01,,0,,
2236_01,,北中学校,,43.8206531897131,143.875180495359,2236_01,,0,,
2236_02,,北中学校,,43.8197624185092,143.875078796968,2236_02,,0,,
6834_01,,北糖工場,,43.7675559866667,143.8612297,6834_01,,0,,
6834_02,,北糖工場,,43.7676976533333,143.861275414286,6834_02,,0,,
6832_01,,北登,,43.92422,143.9125,6832_01,,0,,
6832_02,,北登,,43.9242616666667,143.912652380952,6832_02,,0,,
6800_01,,北光１号線,,43.78500612,143.8919637,6800_01,,0,,
6800_02,,北光１号線,,43.78520112,143.892655128571,6800_02,,0,,
6802_01,,北光２号線,,43.78462121,143.8857538,6802_01,,0,,
6802_02,,北光２号線,,43.78483121,143.887382371429,6802_02,,0,,
6806_01,,北光４号線,,43.78346761,143.8735639,6806_01,,0,,
6806_02,,北光４号線,,43.78400761,143.874638185714,6806_02,,0,,
6808_01,,北光社,,43.7783059833333,143.87196272381,6808_01,,0,,
6808_02,,北光社,,43.7790776500001,143.871884628571,6808_02,,0,,
546_01,,北兵村１区,,44.1743866666667,143.58609047619,546_01,,0,,
546_02,,北兵村１区,,44.17392,143.5859,546_02,,0,,
1602_01,,北見駅,,43.80593,143.896914285714,1602_01,,0,,
1602_02,,北見駅,,43.8057383333333,143.897066666667,1602_02,,0,,
1828_01,,北見卸売市場,,43.80521,143.8288,1828_01,,0,,
2240_01,,北見温泉,,43.7866433333334,143.639304761905,2240_01,,0,,
2240_02,,北見温泉,,43.786735,143.639062857143,2240_02,,0,,
2248_01,,記念碑,,43.9698116666667,143.533012380952,2248_01,,0,,
2248_02,,記念碑,,43.9696133333333,143.53282,2248_02,,0,,
2200_01,,キャンプ場入口,,44.24397,143.5106,2200_01,,0,,
2200_02,,キャンプ場入口,,44.2442033333333,143.510733333333,2200_02,,0,,
3202_01,,境野２号線,,43.7120383333333,143.655180952381,3202_01,,0,,
3202_02,,境野２号線,,43.712245,143.655234285714,3202_02,,0,,
2208_01,,共立,,44.08338,144.0352,2208_01,,0,,
2208_02,,共立,,44.0832216666667,144.035371428571,2208_02,,0,,
9307_01,,共立７号線,,44.0944655,144.049364071429,9307_01,,0,,
9307_02,,共立７号線,,44.0942555,144.0491755,9307_02,,0,,
9308_01,,共立８号線,,44.0910721033333,144.043613147619,9308_01,,0,,
9308_02,,共立８号線,,44.0907771033333,144.0432741,9308_02,,0,,
2210_01,,共和,,44.26566,143.47019047619,2210_01,,0,,
2210_02,,共和,,44.2655516666666,143.470657142857,2210_02,,0,,
2212_01,,共和生きがいセンター,,43.700125,144.026785714286,2212_01,,0,,
2212_02,,共和生きがいセンター,,43.699975,144.026551428571,2212_02,,0,,
2252_01,,清見中央,,43.8176,143.8856,2252_01,,0,,
2252_02,,清見中央,,43.81772,143.885571428572,2252_02,,0,,
2254_01,,清見町,,43.81781,143.8888,2254_01,,0,,
2254_02,,清見町,,43.817935,143.888788571429,2254_02,,0,,
2250_01,,キララン清里,,43.8597000000002,143.509440000001,2250_01,,0,,
2404_01,,グリーンタウン,,43.847685,144.095152380952,2404_01,,0,,
2404_02,,グリーンタウン,,43.84761,144.09500952381,2404_02,,0,,
6202_01,,グリーン団地,,43.7854733333333,143.865455238095,6202_01,,0,,
6202_02,,グリーン団地,,43.785395,143.865598095238,6202_02,,0,,
2400_01,,訓子府,,43.7270483333333,143.737914285714,2400_01,,0,,
2400_02,,訓子府,,43.727195,143.738845714286,2400_02,,0,,
2400_03,,訓子府,,43.7267031805546,143.738433396439,2400_03,,0,,
9810_01,,訓子府２５号線,,43.7268394333333,143.733540866667,9810_01,,0,,
9810_02,,訓子府２５号線,,43.7269761,143.734371342857,9810_02,,0,,
2403_01,,訓子府駅,,43.7288966666667,143.738247619048,2403_01,,0,,
2402_01,,訓子府温泉入口,,43.7280666666667,143.749653333333,2402_01,,0,,
2402_02,,訓子府温泉入口,,43.7284183333333,143.750727619048,2402_02,,0,,
6246_01,,訓子府東町,,43.7273866666666,143.742611428571,6246_01,,0,,
6246_02,,訓子府東町,,43.72754,143.742571428571,6246_02,,0,,
4850_01,,警察署,,43.813205,143.900028571428,4850_01,,0,,
4850_02,,警察署,,43.8129900000001,143.90004,4850_02,,0,,
516_01,,げんき２１,,44.0584433333334,143.525404761904,516_01,,0,,
516_02,,げんき２１,,44.0582183333333,143.525719047619,516_02,,0,,
2604_01,,原生花園,,44.290865,143.434085714286,2604_01,,0,,
2604_02,,原生花園,,44.290715,143.435666666667,2604_02,,0,,
6230_01,,小泉７号,,43.823975,143.918485714286,6230_01,,0,,
6230_02,,小泉７号,,43.82381,143.917565714286,6230_02,,0,,
6230_03,,小泉７号,,43.8229,143.9172,6230_03,,0,,
2800_01,,小泉８号,,43.82686,143.9231,2800_01,,0,,
2800_02,,小泉８号,,43.8269264003515,143.92330974835,2800_02,,0,,
2802_01,,小泉小学校,,43.82115,143.922088571429,2802_01,,0,,
2802_02,,小泉小学校,,43.82182,143.922728571429,2802_02,,0,,
2804_01,,小泉団地,,43.82555,143.9207,2804_01,,0,,
2804_02,,小泉団地,,43.825405,143.920717142857,2804_02,,0,,
2807_01,,小泉中学校入口,,43.82034,143.913445714286,2807_01,,0,,
2807_02,,小泉中学校入口,,43.81956,143.912611428571,2807_02,,0,,
2218_01,,高栄３号線,,43.814265,143.874925714286,2218_01,,0,,
2218_02,,高栄３号線,,43.81392,143.876,2218_02,,0,,
2218_03,,高栄３号線,,43.8146863636945,143.875726724225,2218_03,,0,,
2818_01,,高栄４号線,,43.8138100000001,143.868314285714,2818_01,,0,,
2818_02,,高栄４号線,,43.81403,143.869817142857,2818_02,,0,,
2817_01,,高栄６号線,,43.811745,143.857005714285,2817_01,,0,,
2817_02,,高栄６号線,,43.811865,143.857171428571,2817_02,,0,,
2808_01,,高栄小学校,,43.8134299999999,143.859285714285,2808_01,,0,,
2808_02,,高栄小学校,,43.8136400000001,143.859331428571,2808_02,,0,,
2808_03,,高栄小学校,,43.8127131657262,143.860918026988,2808_03,,0,,
4806_02,,高栄商店街入口,,43.81474,143.8584,4806_02,,0,,
2814_01,,高栄団地入口,,43.813525,143.864211428571,2814_01,,0,,
2814_02,,高栄団地入口,,43.81365,143.864508571429,2814_02,,0,,
554_01,,高栄西町１丁目,,43.80856,143.865,554_01,,0,,
554_02,,高栄西町１丁目,,43.8088733333333,143.867213333333,554_02,,0,,
1006_01,,高栄東町３丁目,,43.81665,143.871157142857,1006_01,,0,,
9890_01,,高栄美山通,,43.81501746,143.861736957143,9890_01,,0,,
9890_02,,高栄美山通,,43.81486246,143.862708385714,9890_02,,0,,
2826_01,,工業高校,,43.80277,143.80369047619,2826_01,,0,,
2826_02,,工業高校,,43.803045,143.805166666667,2826_02,,0,,
2840_01,,工業大学正門,,43.82411,143.905077142857,2840_01,,0,,
2840_02,,工業大学正門,,43.823825,143.905431428571,2840_02,,0,,
2838_01,,工業大学入口,,43.8202,143.9108,2838_01,,0,,
2838_02,,工業大学入口,,43.82024,143.911137142857,2838_02,,0,,
2880_01,,公進橋,,43.6693,143.575065714286,2880_01,,0,,
2880_02,,公進橋,,43.669355,143.574774285714,2880_02,,0,,
2832_01,,光西中学校,,43.79861,143.8689,2832_01,,0,,
2832_02,,光西中学校,,43.7988766666667,143.869138095238,2832_02,,0,,
2844_01,,向陽園,,43.9809533333333,143.53419047619,2844_01,,0,,
2844_02,,向陽園,,43.9812366666667,143.534095238095,2844_02,,0,,
2870_01,,五鹿山通,,44.1885516666667,143.594742857143,2870_01,,0,,
2870_02,,五鹿山通,,44.1886266666667,143.595114285714,2870_02,,0,,
2854_01,,小町川大橋,,43.793355,143.866154285714,2854_01,,0,,
2854_02,,小町川大橋,,43.79355,143.866731428571,2854_02,,0,,
2864_01,,小向,,44.27641,143.4527,2864_01,,0,,
2864_02,,小向,,44.2763249999999,143.453157142857,2864_02,,0,,
2858_01,,小向１１線,,44.2881166666667,143.440538095239,2858_01,,0,,
2858_02,,小向１１線,,44.2880583333334,143.441119047619,2858_02,,0,,
2860_01,,小向１４線,,44.2741066666667,143.455076190476,2860_01,,0,,
2860_02,,小向１４線,,44.27444,143.455038095238,2860_02,,0,,
2862_01,,小向７線,,44.2935566666666,143.414857142857,2862_01,,0,,
2862_02,,小向７線,,44.2934983333334,143.415228571429,2862_02,,0,,
9000_01,,斉藤宅前（大正）,,43.82693517,143.8504617,9000_01,,0,,
9000_02,,斉藤宅前（大正）,,43.8267410777216,143.850361372763,9000_02,,0,,
3002_01,,境野,,43.7142416666667,143.659795238095,3002_01,,0,,
3002_02,,境野,,43.71466,143.660294285714,3002_02,,0,,
3007_01,,栄町,,43.4741,143.738504761905,3007_01,,0,,
3007_02,,栄町,,43.47413,143.738331428571,3007_02,,0,,
3010_01,,栄町１区,,43.786025,143.611163809524,3010_01,,0,,
3010_02,,栄町１区,,43.78639,143.61132,3010_02,,0,,
538_01,,三号峠,,43.9333716666667,143.914557142857,538_01,,0,,
538_02,,三号峠,,43.9333466666667,143.91469047619,538_02,,0,,
7234_01,,サントライ北見,,43.80395,143.836,7234_01,,0,,
4814_01,,市営球場入口,,43.819,143.89292,4814_01,,0,,
4814_02,,市営球場入口,,43.8191500000001,143.89288,4814_02,,0,,
3250_01,,実習橋,,43.656375,143.568937142857,3250_01,,0,,
3250_02,,実習橋,,43.656625,143.568617142857,3250_02,,0,,
520_01,,シティえんがる,,44.0574166666667,143.528585714286,520_01,,0,,
520_02,,シティえんがる,,44.057325,143.528519047619,520_02,,0,,
3244_01,,児童相談所,,43.819135,143.901331428572,3244_01,,0,,
3244_02,,児童相談所,,43.818885,143.901285714286,3244_02,,0,,
3226_01,,市民会館,,43.7999916666667,143.890157142857,3226_01,,0,,
3228_01,,下鉱山,,43.688385,143.610604761905,3228_01,,0,,
3228_02,,下鉱山,,43.68858,143.610454285714,3228_02,,0,,
3200_01,,修覚寺,,43.826275,143.912991428572,3200_01,,0,,
3200_02,,修覚寺,,43.82618,143.9129,3200_02,,0,,
3204_01,,春光町３丁目,,43.8220183333334,143.915820952381,3204_01,,0,,
3204_02,,春光町３丁目,,43.8213716666667,143.915131428571,3204_02,,0,,
3206_01,,春光町４丁目,,43.8246,143.926128571429,3206_01,,0,,
3206_02,,春光町４丁目,,43.8247800000001,143.926077142857,3206_02,,0,,
3208_01,,春光町５丁目,,43.8191000000001,143.919477142857,3208_01,,0,,
3208_02,,春光町５丁目,,43.8196350000001,143.919894285714,3208_02,,0,,
210_01,,昭栄１０号線,,43.7639016666667,143.5471,210_01,,0,,
210_02,,昭栄１０号線,,43.7645000000001,143.548665714286,210_02,,0,,
9211_01,,昭栄１１号線,,43.76198495,143.538407957143,9211_01,,0,,
9211_02,,昭栄１１号線,,43.76219495,143.5385451,9211_02,,0,,
213_01,,昭栄１３号線,,43.7594,143.5284,213_01,,0,,
213_02,,昭栄１３号線,,43.7597683333333,143.529093333334,213_02,,0,,
9209_01,,昭栄９号線,,43.7668885,143.553663842857,9209_01,,0,,
9209_02,,昭栄９号線,,43.7675685,143.554583842857,9209_02,,0,,
3251_01,,小利別,,43.58761,143.679080952381,3251_01,,0,,
3251_02,,小利別,,43.588085,143.678423809524,3251_02,,0,,
4820_01,,常盤町,,43.79637,143.8921,4820_01,,0,,
4820_02,,常盤町,,43.796675,143.891922857143,4820_02,,0,,
3210_01,,消防署,,43.81254,143.882428571429,3210_01,,0,,
3210_02,,消防署,,43.8128000000001,143.882228571429,3210_02,,0,,
2050_01,,上仁頃入口,,43.84997,143.875319047619,2050_01,,0,,
2050_02,,上仁頃入口,,43.84992,143.875442857143,2050_02,,0,,
3212_01,,昭和橋,,43.8352316666667,143.875185714286,3212_01,,0,,
3212_02,,昭和橋,,43.8349483333333,143.875261904762,3212_02,,0,,
3246_01,,神社通,,43.9196133333333,143.536238095238,3246_01,,0,,
3246_02,,神社通,,43.9199216666667,143.535714285714,3246_02,,0,,
3224_01,,信部内,,44.2321433333333,143.532542857143,3224_01,,0,,
3224_02,,信部内,,44.2323266666667,143.532676190476,3224_02,,0,,
3400_01,,末広,,43.71798,143.7384,3400_01,,0,,
3406_01,,スポーツ公園,,44.05348,143.540642857143,3406_01,,0,,
2214_01,,聖徳寺,,43.827455,143.909422857143,2214_01,,0,,
2214_02,,聖徳寺,,43.8273450000001,143.909474285714,2214_02,,0,,
4133_01,,大泉寺,,43.75626,143.506925714286,4133_01,,0,,
4133_02,,大泉寺,,43.75627,143.5068,4133_02,,0,,
4002_01,,大正入口,,43.8414616666667,143.873095238095,4002_01,,0,,
4002_02,,大正入口,,43.84192,143.873276190476,4002_02,,0,,
4004_01,,大正ゴルフ場入口,,43.8315068,143.8586069,4004_01,,0,,
2004_01,,大正神社入口,,43.8170421066667,143.843059671428,2004_01,,0,,
2004_03,,大正神社入口,,43.8170415284635,143.843212976655,2004_03,,0,,
4006_01,,大正橋,,43.81149572,143.834403028571,4006_01,,0,,
4006_02,,大正橋,,43.81189572,143.8344316,4006_02,,0,,
4008_01,,大正福祉会館,,43.82315397,143.8399206,4008_01,,0,,
9045_01,,大和,,43.8839555466667,143.895438461905,9045_01,,0,,
4048_01,,大和団地,,43.9988733333333,143.53549047619,4048_01,,0,,
4048_02,,大和団地,,43.9991233333333,143.535214285714,4048_02,,0,,
4012_01,,高台町,,43.71945,144.0237,4012_01,,0,,
4012_02,,高台町,,43.7207666666667,144.024423809524,4012_02,,0,,
4018_01,,高野第三,,43.85662,144.083023809524,4018_01,,0,,
4018_02,,高野第三,,43.856535,144.082920952381,4018_02,,0,,
4016_01,,高野第一,,43.87457,144.047614285714,4016_01,,0,,
4016_02,,高野第一,,43.87452,144.047376190476,4016_02,,0,,
4020_01,,高野中央,,43.8742983333333,144.063057142857,4020_01,,0,,
4020_02,,高野中央,,43.87429,144.063,4020_02,,0,,
4026_01,,拓実入口,,43.66741,143.5694,4026_01,,0,,
4026_02,,拓実入口,,43.6680150000001,143.570291428572,4026_02,,0,,
4024_01,,拓殖橋,,43.669925,143.574417142857,4024_01,,0,,
4024_02,,拓殖橋,,43.67014,143.574474285714,4024_02,,0,,
355_01,,達美５５線,,43.72811,144.030574285714,355_01,,0,,
355_02,,達美５５線,,43.72808,144.030311428571,355_02,,0,,
4030_01,,達美会館,,43.724065,144.026920952381,4030_01,,0,,
4030_02,,達美会館,,43.7242133333333,144.026814285714,4030_02,,0,,
6224_01,,田端５号線,,43.8140300000001,143.91412,6224_01,,0,,
6224_02,,田端５号線,,43.814235,143.913988571429,6224_02,,0,,
6226_01,,田端６号線,,43.81747,143.917474285714,6226_01,,0,,
6226_02,,田端６号線,,43.8182550000001,143.918091428571,6226_02,,0,,
4032_01,,田端町,,43.81854,143.911022857143,4032_01,,0,,
4032_02,,田端町,,43.81849,143.91112,4032_02,,0,,
6602_01,,田端変電所,,43.8151550000001,143.915257142857,6602_01,,0,,
6602_02,,田端変電所,,43.816055,143.915748571428,6602_02,,0,,
4034_01,,端野１区,,43.8863866666667,143.967542857143,4034_01,,0,,
4034_02,,端野１区,,43.88622,143.967180952381,4034_02,,0,,
6214_01,,端野公民館入口,,43.8586983333334,143.947419047619,6214_01,,0,,
6214_02,,端野公民館入口,,43.85834,143.947552380952,6214_02,,0,,
6212_01,,端野農協,,43.84996,143.939604761905,6212_01,,0,,
6212_02,,端野農協,,43.84861,143.938557142857,6212_02,,0,,
4036_01,,端野病院,,43.8862666666667,143.980357142857,4036_01,,0,,
4036_02,,端野病院,,43.886,143.9795,4036_02,,0,,
4038_01,,端野郵便局,,43.85502,143.944466666667,4038_01,,0,,
4038_02,,端野郵便局,,43.8541366666667,143.943952380952,4038_02,,0,,
4210_01,,地域訓練センター,,43.79319,143.86386,4210_01,,0,,
4210_02,,地域訓練センター,,43.79345,143.86514,4210_02,,0,,
4212_01,,チミケップ入口,,43.6964933333333,143.888152380952,4212_01,,0,,
4212_02,,チミケップ入口,,43.69641,143.8878,4212_02,,0,,
2230_01,,ちゃちゃワールド,,43.9264366666667,143.529414285714,2230_01,,0,,
2230_02,,ちゃちゃワールド,,43.9264866666667,143.52909047619,2230_02,,0,,
9802_01,,忠志入口,,43.8793337333334,143.951230138095,9802_01,,0,,
9802_02,,忠志入口,,43.8779004,143.951506328571,9802_02,,0,,
9515_01,,チューリップ公園,,44.15854405,143.5762228,9515_01,,0,,
9515_02,,チューリップ公園,,44.1584607166667,143.576411371428,9515_02,,0,,
4206_01,,町営バス車庫,,43.7016033333333,144.030847619047,4206_01,,0,,
4206_02,,町営バス車庫,,43.701165,144.030765714286,4206_02,,0,,
4402_01,,つつじ公園,,43.816835,143.868522857143,4402_01,,0,,
2016_01,,角橋,,44.01511,143.517285714286,2016_01,,0,,
2016_02,,角橋,,44.01501,143.517142857143,2016_02,,0,,
1030_01,,津別旭町,,43.70894,144.0249,1030_01,,0,,
1030_02,,津別旭町,,43.7097700000001,144.0257,1030_02,,0,,
2812_01,,津別高栄団地,,43.7223383333333,144.025785714286,2812_01,,0,,
2812_02,,津別高栄団地,,43.7226466666667,144.02590952381,2812_02,,0,,
4404_01,,津別バスターミナル,,43.70726,144.02360952381,4404_01,,0,,
6848_01,,津別本町,,43.7058087133333,144.022463128571,6848_01,,0,,
6848_02,,津別本町,,43.70575038,144.0222917,6848_02,,0,,
4608_01,,出合橋,,44.16534,143.580528571429,4608_01,,0,,
4608_02,,出合橋,,44.164325,143.58006,4608_02,,0,,
4600_01,,鉄山,,44.003485,143.965438095238,4600_01,,0,,
4600_02,,鉄山,,44.0033266666667,143.965419047619,4600_02,,0,,
4602_01,,テニスコート,,43.820525,143.89438,4602_01,,0,,
4602_02,,テニスコート,,43.82065,143.894414285714,4602_02,,0,,
4802_01,,東亜入口,,44.0081666666667,143.973871428571,4802_01,,0,,
4802_02,,東亜入口,,44.0079916666667,143.97369047619,4802_02,,0,,
6208_01,,東武,,43.8420133333333,143.931961904762,6208_01,,0,,
6208_02,,東武,,43.841055,143.931304761905,6208_02,,0,,
5204_01,,道立病院,,43.809365,143.893771428571,5204_01,,0,,
5204_02,,道立病院,,43.809435,143.893885714286,5204_02,,0,,
4816_01,,東陵中学校,,43.820895,143.889697142857,4816_01,,0,,
4816_02,,東陵中学校,,43.82099,143.890022857143,4816_02,,0,,
4818_01,,常盤公園,,43.7916,143.888705714286,4818_01,,0,,
4818_02,,常盤公園,,43.791695,143.888688571429,4818_02,,0,,
4822_01,,常呂,,44.1232,144.0715,4822_01,,0,,
9302_01,,常呂消防署,,44.1163493333333,144.067539571429,9302_01,,0,,
9302_02,,常呂消防署,,44.116286,144.067579571429,9302_02,,0,,
9215_01,,富丘入口,,44.05563683,144.024850252381,9215_01,,0,,
9215_02,,富丘入口,,44.0555034966667,144.024916919048,9215_02,,0,,
9212_01,,豊川１２号線,,44.0723043633333,144.036670938095,9212_01,,0,,
9212_02,,豊川１２号線,,44.0722126966667,144.036689985714,9212_02,,0,,
4830_01,,豊川１３号線,,44.06624,144.0323,4830_01,,0,,
4830_02,,豊川１３号線,,44.06619,144.032357142857,4830_02,,0,,
9217_01,,豊川１７号線,,44.04945882,144.0210847,9217_01,,0,,
9217_02,,豊川１７号線,,44.0489671533333,144.02089422381,9217_02,,0,,
9220_01,,豊川２０号線,,44.0395623266667,144.007966571429,9220_01,,0,,
9220_02,,豊川２０号線,,44.0395039933333,144.007995142857,9220_02,,0,,
4828_01,,豊川郵便局,,44.06266,144.0297,4828_01,,0,,
4828_02,,豊川郵便局,,44.0627516666667,144.02990952381,4828_02,,0,,
4834_01,,豊里官舎,,44.03612,143.516638095238,4834_01,,0,,
4834_02,,豊里官舎,,44.0363616666667,143.516552380952,4834_02,,0,,
4836_01,,豊里団地,,44.0306433333333,143.513280952381,4836_01,,0,,
4836_02,,豊里団地,,44.0307433333333,143.513119047619,4836_02,,0,,
9305_01,,豊住５号線,,43.70618167,143.633292795238,9305_01,,0,,
9305_02,,豊住５号線,,43.70625667,143.6332547,9305_02,,0,,
9507_01,,豊住７号線,,43.7004736533333,143.622414042857,9507_01,,0,,
9507_02,,豊住７号線,,43.70085532,143.622825471429,9507_02,,0,,
4838_01,,豊原５４号,,43.9598216666667,143.530876190476,4838_01,,0,,
4838_02,,豊原５４号,,43.9600883333333,143.530771428571,4838_02,,0,,
1206_01,,豊原５７号,,43.9481983333333,143.52260952381,1206_01,,0,,
1206_02,,豊原５７号,,43.9481233333333,143.52239047619,1206_02,,0,,
342_01,,豊幌４２線,,43.7769816666667,144.076014285714,342_01,,0,,
342_02,,豊幌４２線,,43.7779183333334,144.076338095238,342_02,,0,,
343_01,,豊幌４３線,,43.7723966666667,144.07336,343_01,,0,,
343_02,,豊幌４３線,,43.7730166666667,144.073495238095,343_02,,0,,
345_01,,豊幌４５線,,43.76718,144.070185714286,345_01,,0,,
345_02,,豊幌４５線,,43.7677466666667,144.070404761905,345_02,,0,,
4840_01,,豊実,,43.91959,143.9196,4840_01,,0,,
4840_02,,豊実,,43.9194816666667,143.919723809524,4840_02,,0,,
4842_01,,とん田２号線,,43.794565,143.884362857143,4842_01,,0,,
4842_02,,とん田２号線,,43.79472,143.884037142857,4842_02,,0,,
4844_01,,とん田３号線,,43.79412,143.877682857143,4844_01,,0,,
4844_02,,とん田３号線,,43.794395,143.879145714286,4844_02,,0,,
4846_01,,とん田４号線,,43.793745,143.872111428571,4846_01,,0,,
4846_02,,とん田４号線,,43.793915,143.872214285714,4846_02,,0,,
4848_01,,とん田仲通,,43.79914,143.876696190476,4848_01,,0,,
4848_02,,とん田仲通,,43.7995016666667,143.8789,4848_02,,0,,
4848_03,,とん田仲通,,43.7987599999999,143.877951428571,4848_03,,0,,
4848_04,,とん田仲通,,43.8000715083438,143.877520507286,4848_04,,0,,
4852_01,,とん田西通,,43.79393,143.874765714286,4852_01,,0,,
4852_02,,とん田西通,,43.79417,143.876062857143,4852_02,,0,,
4854_01,,とん田東通,,43.794375,143.88148,4854_01,,0,,
4854_02,,とん田東通,,43.794585,143.882011428572,4854_02,,0,,
536_01,,屯田の杜公園,,43.8620033333333,143.948404761905,536_01,,0,,
536_02,,屯田の杜公園,,43.861945,143.948614285714,536_02,,0,,
9219_01,,中里１９号線,,43.6635925,143.5569727,9219_01,,0,,
9219_02,,中里１９号線,,43.6636175,143.557077461905,9219_02,,0,,
9221_01,,中里２１号線,,43.65823604,143.544673780952,9221_01,,0,,
9221_02,,中里２１号線,,43.6587277066667,143.545426161905,9221_02,,0,,
7268_01,,中の島１丁目,,43.79703,143.897534285714,7268_01,,0,,
7268_02,,中の島１丁目,,43.7966149999999,143.897282857143,7268_02,,0,,
7268_03,,中の島１丁目,,43.7968575136492,143.897129400286,7268_03,,0,,
5000_01,,中の島４丁目,,43.79207,143.895771428571,5000_01,,0,,
5000_02,,中の島４丁目,,43.79224,143.896765714286,5000_02,,0,,
5002_01,,中の島公園入口,,43.79154,143.8927,5002_01,,0,,
5002_02,,中の島公園入口,,43.79234,143.89246,5002_02,,0,,
5002_03,,中の島公園入口,,43.7918400000001,143.892202857143,5002_03,,0,,
5002_04,,中の島公園入口,,43.792,143.893145714286,5002_04,,0,,
5004_01,,中の島団地,,43.794245,143.89756,5004_01,,0,,
5004_02,,中の島団地,,43.79424,143.897445714286,5004_02,,0,,
5006_01,,仲町,,43.787445,143.619411428571,5006_01,,0,,
5006_02,,仲町,,43.78751,143.619988571429,5006_02,,0,,
5012_01,,中湧別市街,,44.1871533333333,143.593842857143,5012_01,,0,,
5012_02,,中湧別市街,,44.1865766666667,143.593867619047,5012_02,,0,,
5010_01,,中湧別小学校,,44.1837333333334,143.591766666667,5010_01,,0,,
5010_02,,中湧別小学校,,44.1835666666667,143.591928571428,5010_02,,0,,
5008_01,,中湧別文化センタートム,,44.18609,143.596302857143,5008_01,,0,,
7238_02,,南岸通４号線,,43.78883,143.8713,7238_02,,0,,
106_01,,仁頃はっか公園,,43.9059083333334,143.907833333333,106_01,,0,,
106_02,,仁頃はっか公園,,43.9053916666667,143.907538095238,106_02,,0,,
5208_01,,仁頃町,,43.89732,143.898466666667,5208_01,,0,,
5208_02,,仁頃町,,43.89707,143.898394285714,5208_02,,0,,
211_01,,西１１号線,,43.8024133333333,143.817052380952,211_01,,0,,
211_02,,西１１号線,,43.802155,143.819023809524,211_02,,0,,
214_01,,西１４号線,,43.80249,143.7993,214_01,,0,,
214_02,,西１４号線,,43.8027566666666,143.801166666667,214_02,,0,,
215_01,,西１５号線,,43.8020183333333,143.79299047619,215_01,,0,,
215_02,,西１５号線,,43.8022666666667,143.794361904762,215_02,,0,,
217_01,,西１７号線,,43.80098,143.7779,217_01,,0,,
217_02,,西１７号線,,43.8012383333333,143.779671428571,217_02,,0,,
502_01,,西１８号線,,43.80057,143.7719,502_01,,0,,
502_02,,西１８号線,,43.8008533333333,143.773947619048,502_02,,0,,
223_01,,西２３号線,,43.7950583333333,143.7381,223_01,,0,,
223_02,,西２３号線,,43.7952833333333,143.739623809524,223_02,,0,,
504_01,,西２４号線,,43.7950016666667,143.731595238095,504_01,,0,,
504_02,,西２４号線,,43.7952183333333,143.732804761905,504_02,,0,,
5227_01,,西２５号線,,43.7941166666667,143.724728571429,5227_01,,0,,
5227_02,,西２５号線,,43.794475,143.726014285715,5227_02,,0,,
226_01,,西２６号線,,43.793,143.71749047619,226_01,,0,,
226_02,,西２６号線,,43.7934166666667,143.719052380952,226_02,,0,,
228_01,,西２８号線,,43.7915,143.7039,228_01,,0,,
228_02,,西２８号線,,43.79176,143.706237142857,228_02,,0,,
230_01,,西３０号線,,43.79071,143.6904,230_01,,0,,
230_02,,西３０号線,,43.79086,143.691811428572,230_02,,0,,
232_01,,西３２号線,,43.78985,143.678,232_01,,0,,
232_02,,西３２号線,,43.7900400000001,143.679325714286,232_02,,0,,
234_01,,西３４号線,,43.78889,143.6636,234_01,,0,,
234_02,,西３４号線,,43.78913,143.665262857143,234_02,,0,,
235_01,,西３５号線,,43.78853,143.6573,235_01,,0,,
235_02,,西３５号線,,43.7887,143.658282857143,235_02,,0,,
236_01,,西３６号線,,43.7881883333333,143.6503,236_01,,0,,
236_02,,西３６号線,,43.78832,143.650294285714,236_02,,0,,
5216_01,,西４号線,,43.798935,143.873671428571,5216_01,,0,,
5216_02,,西４号線,,43.7990766666667,143.872338095238,5216_02,,0,,
207_01,,西７号線,,43.7974033333334,143.84959047619,207_01,,0,,
207_02,,西７号線,,43.7976533333334,143.850754285715,207_02,,0,,
208_01,,西８号線,,43.796895,143.842533333334,208_01,,0,,
208_02,,西８号線,,43.7971866666667,143.843919999999,208_02,,0,,
209_01,,西９号線,,43.79734,143.835904761905,209_01,,0,,
209_02,,西９号線,,43.79729,143.8368,209_02,,0,,
7230_01,,西北見駅,,43.803465,143.841617142857,7230_01,,0,,
5228_01,,西小学校,,43.79181,143.8855,5228_01,,0,,
5228_02,,西小学校,,43.791895,143.885745714286,5228_02,,0,,
9226_01,,西富２６号線,,43.72720521,143.7272984,9226_01,,0,,
9226_02,,西富２６号線,,43.72726521,143.727532685714,9226_02,,0,,
9228_01,,西富２８号線,,43.7266246233333,143.708961019048,9228_01,,0,,
9228_02,,西富２８号線,,43.72727629,143.710319114286,9228_02,,0,,
9230_01,,西富３０号線,,43.7227878033333,143.699040071429,9230_01,,0,,
9230_02,,西富３０号線,,43.7233528033333,143.700141023809,9230_02,,0,,
5226_01,,西富３１号線,,43.7201633333333,143.692334285715,5226_01,,0,,
5226_02,,西富３１号線,,43.7207466666667,143.693404761905,5226_02,,0,,
233_01,,西富３３号線,,43.71514,143.679285714286,233_01,,0,,
233_02,,西富３３号線,,43.715675,143.680274285714,233_02,,0,,
8301_01,,虹野団地,,43.854395,143.941954285714,8301_01,,0,,
5200_01,,日赤看護大学,,43.82958,143.908,5200_01,,0,,
5202_01,,日赤病院,,43.80826,143.8952,5202_01,,0,,
5202_02,,日赤病院,,43.8080849999999,143.895268571429,5202_02,,0,,
5400_01,,沼の上,,44.2405183333333,143.516957142857,5400_01,,0,,
5400_02,,沼の上,,44.2406883333334,143.517223809524,5400_02,,0,,
5800_01,,農協,,43.79912,143.8937,5800_01,,0,,
5800_02,,農協,,43.79918,143.89382,5800_02,,0,,
8304_01,,ノーザンアークリゾート入口,,43.8661833333333,143.930433333333,8304_01,,0,,
5808_01,,野上変電所,,44.0250016666667,143.50979047619,5808_01,,0,,
5808_02,,野上変電所,,44.0250016666667,143.509533333333,5808_02,,0,,
5810_01,,のぞみ幼稚園,,43.81598,143.876705714286,5810_01,,0,,
5810_02,,のぞみ幼稚園,,43.816255,143.876642857143,5810_02,,0,,
5812_01,,野付牛公園入口,,43.8170566666667,143.907761904762,5812_01,,0,,
5812_02,,野付牛公園入口,,43.8169066666667,143.907923809524,5812_02,,0,,
5428_01,,のつけ乃湯,,43.828065,143.929482857143,5428_01,,0,,
5428_02,,のつけ乃湯,,43.828185,143.92938,5428_02,,0,,
5814_01,,登,,43.9512866666667,143.925480952381,5814_01,,0,,
5814_02,,登,,43.9509866666667,143.9253,5814_02,,0,,
5816_01,,登東部,,43.94155,143.918138095238,5816_01,,0,,
5816_02,,登東部,,43.9414416666667,143.918214285714,5816_02,,0,,
8302_01,,のんたの湯,,43.86261,143.9273,8302_01,,0,,
8025_01,,八十士,,44.2902033333333,143.424066666667,8025_01,,0,,
8025_02,,八十士,,44.290245,143.424533333334,8025_02,,0,,
1600_01,,林友橋,,43.67255,143.5807,1600_01,,0,,
1600_02,,林友橋,,43.672655,143.58066,1600_02,,0,,
3214_01,,ハローワーク,,44.3350833333333,143.356919047619,3214_01,,0,,
3214_02,,ハローワーク,,44.3351583333333,143.356957142857,3214_02,,0,,
6200_01,,緋牛内,,43.8799816666667,144.004238095238,6200_01,,0,,
6200_02,,緋牛内,,43.87974,144.00420952381,6200_02,,0,,
6228_01,,東６丁目,,43.8101416666667,143.90100952381,6228_01,,0,,
6228_02,,東６丁目,,43.8093916666666,143.900580952381,6228_02,,0,,
6232_01,,東８号線,,43.82949,143.919814285714,6232_01,,0,,
6232_02,,東８号線,,43.8286733333333,143.91930952381,6232_02,,0,,
6236_01,,東９丁目,,43.8120833333333,143.902904761905,6236_01,,0,,
6236_02,,東９丁目,,43.8116,143.9028,6236_02,,0,,
6234_01,,東９号線,,43.8334733333334,143.923666666667,6234_01,,0,,
6234_02,,東９号線,,43.8322316666667,143.922771428571,6234_02,,0,,
6238_01,,東相内,,43.8032033333333,143.80979047619,6238_01,,0,,
6238_02,,東相内,,43.8034266666667,143.810723809524,6238_02,,0,,
6240_01,,東相内中学校,,43.80136,143.821,6240_01,,0,,
6240_02,,東相内中学校,,43.8006766666666,143.824419047619,6240_02,,0,,
2822_01,,光苑団地,,43.82632,143.8975,2822_01,,0,,
6292_01,,ひかり野２丁目,,43.8292883333333,143.926110476191,6292_01,,0,,
6292_02,,ひかり野２丁目,,43.82965,143.926377142858,6292_02,,0,,
6299_01,,ひかり野９号線,,43.82997,143.929611428571,6299_01,,0,,
6299_02,,ひかり野９号線,,43.82999,143.929794285714,6299_02,,0,,
6204_01,,光の苑,,43.82682,143.89984,6204_01,,0,,
6204_02,,光の苑,,43.82626,143.9006,6204_02,,0,,
335_01,,美富３５線,,43.8065733333333,144.097647619048,335_01,,0,,
335_02,,美富３５線,,43.8076233333333,144.099019047619,335_02,,0,,
337_01,,美富３７線,,43.7988283333333,144.093304761905,337_01,,0,,
337_02,,美富３７線,,43.799445,144.093676190476,337_02,,0,,
4014_01,,美禽入口,,43.8501816666667,144.092395238095,4014_01,,0,,
4014_02,,美禽入口,,43.85029,144.09170952381,4014_02,,0,,
6250_01,,ひなみ,,43.8745316666667,144.018742857143,6250_01,,0,,
6250_02,,ひなみ,,43.87444,144.0168,6250_02,,0,,
6252_01,,日の出,,43.7356200000001,143.787823809524,6252_01,,0,,
6252_02,,日の出,,43.7360950000001,143.788852380953,6252_02,,0,,
6253_01,,日の出１６号線,,43.7380166666667,143.794266666667,6253_01,,0,,
6253_02,,日の出１６号線,,43.73859,143.795382857143,6253_02,,0,,
6254_01,,ひばりヶ丘,,43.81685,143.874091428572,6254_01,,0,,
6254_02,,ひばりヶ丘,,43.8178400000002,143.875537142858,6254_02,,0,,
6254_03,,ひばりヶ丘,,43.8184710272219,143.87521959986,6254_03,,0,,
6268_01,,美幌,,43.8355683333333,144.10709047619,6268_01,,0,,
2216_01,,美幌北２丁目,,43.824525,144.103952380952,2216_01,,0,,
2216_02,,美幌北２丁目,,43.8246,144.103723809524,2216_02,,0,,
2220_01,,美幌北４丁目,,43.826665,144.105147619048,2220_01,,0,,
2220_02,,美幌北４丁目,,43.826765,144.105033333333,2220_02,,0,,
9836_01,,美幌北中学校,,43.8374987233333,144.10291262381,9836_01,,0,,
9836_02,,美幌北中学校,,43.8374487233333,144.102779290476,9836_02,,0,,
6634_01,,美幌栄町２丁目,,43.829415,144.106757142857,6634_01,,0,,
6634_02,,美幌栄町２丁目,,43.82954,144.106747619048,6634_02,,0,,
6632_01,,美幌栄町４丁目,,43.8312683333333,144.107900952381,6632_01,,0,,
6632_02,,美幌栄町４丁目,,43.8314033333333,144.107771428571,6632_02,,0,,
7304_01,,美幌南３丁目,,43.8202527,144.101430180952,7304_01,,0,,
7304_02,,美幌南３丁目,,43.8201027,144.1010778,7304_02,,0,,
8090_01,,美幌療育病院,,43.8124083333333,144.100404761905,8090_01,,0,,
8090_02,,美幌療育病院,,43.8134666666667,144.100195238095,8090_02,,0,,
6256_01,,日吉,,43.9811283333333,143.94479047619,6256_01,,0,,
6256_02,,日吉,,43.98102,143.9448,6256_02,,0,,
231_01,,日吉３１号線,,43.98839,143.9484,231_01,,0,,
231_02,,日吉３１号線,,43.9883416666667,143.948577142858,231_02,,0,,
9236_01,,日吉３６号線,,43.9710230033334,143.9401519,9236_01,,0,,
9236_02,,日吉３６号線,,43.9704480033333,143.940047138095,9236_02,,0,,
6262_02,,ヒルストリート美山,,43.82979,143.8806,6262_02,,0,,
2842_01,,弘道,,44.26044,143.475176190476,2842_01,,0,,
2842_02,,弘道,,44.2604900000001,143.475519047619,2842_02,,0,,
7224_01,,美禽橋,,43.8440273033333,144.097931471429,7224_01,,0,,
7224_02,,美禽橋,,43.8432273033333,144.098398138095,7224_02,,0,,
9323_01,,福山２３号線,,44.02695862,143.9932541,9323_01,,0,,
9323_02,,福山２３号線,,44.02688362,143.9932541,9323_02,,0,,
9224_01,,福山入口,,44.02190194,143.9835767,9224_01,,0,,
9224_02,,福山入口,,44.0218686066667,143.983605271429,9224_02,,0,,
6404_01,,藤高校,,43.81429,143.889772380952,6404_01,,0,,
6404_02,,藤高校,,43.814275,143.889922857143,6404_02,,0,,
8210_01,,双葉団地,,43.807715,143.85108,8210_01,,0,,
8210_02,,双葉団地,,43.8079900000001,143.852131428572,8210_02,,0,,
2868_01,,プライムいくたはら,,43.9062533333334,143.532995238095,2868_01,,0,,
2868_02,,プライムいくたはら,,43.9055366666667,143.532395238095,2868_02,,0,,
6408_01,,プレカットセンター,,43.9325983333333,143.523890476191,6408_01,,0,,
6408_02,,プレカットセンター,,43.9328316666667,143.523557142858,6408_02,,0,,
6410_01,,分線,,43.51382,143.71962,6410_01,,0,,
6410_02,,分線,,43.513745,143.71942,6410_02,,0,,
6600_01,,平和,,43.9617466666667,143.927695238095,6600_01,,0,,
6600_02,,平和,,43.96168,143.9278,6600_02,,0,,
6822_01,,北進４号線,,43.80386,143.8694,6822_01,,0,,
6822_02,,北進４号線,,43.803945,143.868434285714,6822_02,,0,,
6826_01,,北進第一,,43.8040633333333,143.872177142858,6826_01,,0,,
6826_02,,北進第一,,43.804305,143.874190476191,6826_02,,0,,
6828_01,,北進西町,,43.8038433333333,143.865065714286,6828_01,,0,,
6828_02,,北進西町,,43.80384,143.866002857143,6828_02,,0,,
6830_01,,北進橋,,43.80501,143.8637,6830_01,,0,,
6830_02,,北進橋,,43.80603,143.863637142857,6830_02,,0,,
6861_01,,北星記念病院,,43.80276,143.8515,6861_01,,0,,
6842_01,,ホクレン工場,,43.8754016733333,144.009403104762,6842_01,,0,,
6842_02,,ホクレン工場,,43.87614334,144.007774533333,6842_02,,0,,
7290_01,,ぼたん園入口,,43.81745,143.883365714286,7290_01,,0,,
7290_02,,ぼたん園入口,,43.817575,143.883331428571,7290_02,,0,,
6804_01,,北光小学校,,43.78415647,143.878771,6804_01,,0,,
6804_02,,北光小学校,,43.78437647,143.880376714286,6804_02,,0,,
9218_01,,穂波１８号線,,43.7331513333333,143.780533428571,9218_01,,0,,
9218_02,,穂波１８号線,,43.7338096666667,143.782019142857,9218_02,,0,,
219_01,,穂波１９号線,,43.731905,143.774476190476,219_01,,0,,
219_02,,穂波１９号線,,43.7320716666667,143.775571428571,219_02,,0,,
9320_01,,穂波２０号線,,43.73151749,143.768669576191,9320_01,,0,,
9320_02,,穂波２０号線,,43.7314841566667,143.767364814286,9320_02,,0,,
221_01,,穂波２１号線,,43.7302,143.76086,221_01,,0,,
221_02,,穂波２１号線,,43.7305066666667,143.761871428571,221_02,,0,,
9423_01,,穂波２３号線,,43.7277155733333,143.747020190476,9423_01,,0,,
9423_02,,穂波２３号線,,43.72791724,143.748064,9423_02,,0,,
4202_01,,ポン隈川橋,,43.9635333333333,143.938404761905,4202_01,,0,,
4202_02,,ポン隈川橋,,43.9636,143.938566666667,4202_02,,0,,
6846_01,,本沢入口,,43.7977216666667,143.758871428571,6846_01,,0,,
6846_02,,本沢入口,,43.7980216666667,143.759033333333,6846_02,,0,,
7662_01,,まきばのパークゴルフ場,,44.3139005433333,143.396580485714,7662_01,,0,,
7662_02,,まきばのパークゴルフ場,,44.3138588766667,143.397009057143,7662_02,,0,,
7204_01,,水穂生活改善センター,,44.00956643,143.523916842857,7204_01,,0,,
7204_02,,水穂生活改善センター,,44.0097330966666,143.523602557143,7204_02,,0,,
8155_01,,水穂東１線,,44.0185366666667,143.513423809524,8155_01,,0,,
8155_02,,水穂東１線,,44.01867,143.513128571429,8155_02,,0,,
6222_01,,水穂東４線,,44.0052283333333,143.52869047619,6222_01,,0,,
6222_02,,水穂東４線,,44.005045,143.52869047619,6222_02,,0,,
7113_01,,道の駅おんねゆ温泉,,43.7541438,143.5018881,7113_01,,0,,
7210_01,,美富会館,,43.7943309433333,144.089381671429,7210_01,,0,,
7210_02,,美富会館,,43.79499261,144.089756909524,7210_02,,0,,
4860_01,,緑ヶ丘３丁目,,43.8246150000001,143.874511428572,4860_01,,0,,
4860_02,,緑ヶ丘３丁目,,43.8243,143.8737,4860_02,,0,,
4860_03,,緑ヶ丘３丁目,,43.8250446562511,143.874593328676,4860_03,,0,,
7214_01,,緑ヶ丘団地,,43.82107,143.868,7214_01,,0,,
7216_02,,緑ヶ丘通,,43.80946,143.8635,7216_02,,0,,
1014_02,,緑ヶ丘霊園入口,,43.81575,143.8564,1014_02,,0,,
8105_01,,緑風,,43.82414,143.8711,8105_01,,0,,
9950_01,,緑清園老人ホーム,,43.66552508,143.565544323809,9950_01,,0,,
9950_02,,緑清園老人ホーム,,43.66596008,143.566180514286,9950_02,,0,,
9950_03,,緑清園老人ホーム,,43.6656056518455,143.566048133899,9950_03,,0,,
7218_01,,緑小学校,,43.80477,143.849280952381,7218_01,,0,,
7226_01,,緑小グラウンド,,43.8038,143.8479,7226_01,,0,,
7220_01,,緑団地,,43.80729718,143.844916828571,7220_01,,0,,
7220_02,,緑団地,,43.80759218,143.8457854,7220_02,,0,,
7222_01,,緑のセンター,,43.82272453,143.8677802,7222_01,,0,,
7228_01,,緑町２丁目,,43.80365,143.8453,7228_01,,0,,
7229_01,,緑町３丁目,,43.805175,143.842211428571,7229_01,,0,,
7232_01,,緑町６丁目,,43.80334,143.8395,7232_01,,0,,
7248_01,,南ヶ丘,,44.34005605,143.352164547619,7248_01,,0,,
7248_02,,南ヶ丘,,44.3400243833333,143.352379785715,7248_02,,0,,
7242_01,,南ヶ丘１丁目,,44.3464207,143.354538204762,7242_01,,0,,
7242_02,,南ヶ丘１丁目,,44.3463623666667,143.354738204762,7242_02,,0,,
7244_01,,南ヶ丘３丁目,,44.34158309,143.3522798,7244_01,,0,,
7244_02,,南ヶ丘３丁目,,44.34155809,143.352451228571,7244_02,,0,,
7246_01,,南ヶ丘７丁目,,44.3334662833333,143.359456871429,7246_01,,0,,
7246_02,,南ヶ丘７丁目,,44.3334746166667,143.3596283,7246_02,,0,,
5014_01,,南小学校,,43.80127,143.901522857143,5014_01,,0,,
5014_02,,南小学校,,43.80057,143.90318,5014_02,,0,,
5014_03,,南小学校,,43.8011109906285,143.902612535907,5014_03,,0,,
5014_04,,南小学校,,43.8004,143.9023,5014_04,,0,,
7260_01,,南仲町２丁目,,43.802635,143.898217142857,7260_01,,0,,
7260_02,,南仲町２丁目,,43.80214,143.900108571429,7260_02,,0,,
500_01,,南兵村１区,,44.1232616666667,143.554452380952,500_01,,0,,
500_02,,南兵村１区,,44.124095,143.555166666666,500_02,,0,,
9052_01,,南兵村２区,,44.13777177,143.563432823809,9052_01,,0,,
9052_02,,南兵村２区,,44.13692677,143.563078538095,9052_02,,0,,
7262_01,,南町１丁目,,43.798015,143.902131428571,7262_01,,0,,
7262_02,,南町１丁目,,43.7981350000001,143.90168952381,7262_02,,0,,
7262_03,,南町１丁目,,43.7992150000001,143.900902857142,7262_03,,0,,
7262_04,,南町１丁目,,43.7989450000002,143.900942857142,7262_04,,0,,
7262_05,,南町１丁目,,43.7984051257383,143.900397732315,7262_05,,0,,
7262_06,,南町１丁目,,43.7974751257383,143.899197732315,7262_06,,0,,
7264_01,,南町２丁目,,43.79918,143.905694285714,7264_01,,0,,
7264_02,,南町２丁目,,43.79927,143.905677142857,7264_02,,0,,
7266_01,,南町３丁目,,43.7978050000001,143.905805714286,7266_01,,0,,
7266_02,,南町３丁目,,43.79768,143.905815238095,7266_02,,0,,
7270_01,,南町団地入口,,44.1119576666667,144.064429428571,7270_01,,0,,
7270_02,,南町団地入口,,44.110681,144.063658,7270_02,,0,,
7272_01,,遠軽木楽館,,44.04706733,143.522761314286,7272_01,,0,,
7272_02,,遠軽木楽館,,44.04724233,143.522370838095,7272_02,,0,,
7274_01,,美野入口,,43.8709959533333,144.026617785714,7274_01,,0,,
7274_02,,美野入口,,43.8706042866667,144.027198738095,7274_02,,0,,
2222_01,,美山北,,43.827485,143.879451428571,2222_01,,0,,
2222_02,,美山北,,43.82781,143.879045714286,2222_02,,0,,
7280_01,,美山小学校,,43.82452,143.878545714286,7280_01,,0,,
7282_01,,美山第１団地,,43.82002,143.882,7282_01,,0,,
7282_02,,美山第１団地,,43.82003,143.882234285714,7282_02,,0,,
7284_01,,美山第２団地,,43.82419,143.8815,7284_01,,0,,
7284_02,,美山第２団地,,43.82431,143.881711428571,7284_02,,0,,
7286_01,,美山中央,,43.8266350000001,143.881697142857,7286_01,,0,,
7286_02,,美山中央,,43.82662,143.882051428572,7286_02,,0,,
7286_03,,美山中央,,43.82639,143.8814,7286_03,,0,,
7288_01,,美山町,,43.825375,143.884874285714,7288_01,,0,,
7288_02,,美山町,,43.825345,143.885085714286,7288_02,,0,,
7292_01,,美山ふれあい公園,,43.8219849999999,143.881777142857,7292_01,,0,,
7292_02,,美山ふれあい公園,,43.822445,143.88196,7292_02,,0,,
7296_01,,美芳町,,43.8046666666667,143.881471428571,7296_01,,0,,
7296_02,,美芳町,,43.804855,143.882648571429,7296_02,,0,,
9294_01,,美芳町７丁目,,43.80440245,143.883941042858,9294_01,,0,,
9294_02,,美芳町７丁目,,43.80433245,143.884232471429,9294_02,,0,,
7300_01,,三輪,,43.797805,143.856199047619,7300_01,,0,,
7300_02,,三輪,,43.7980950000001,143.857629523811,7300_02,,0,,
7305_01,,三輪通６号線,,43.80293779,143.854458457143,7305_01,,0,,
7306_01,,三輪通８号線,,43.80228825,143.8441655,7306_01,,0,,
7342_01,,ミントスポット北見,,43.8347002533333,143.925117309524,7342_01,,0,,
5218_01,,メッセ,,43.79642,143.857151428571,5218_01,,0,,
5218_02,,メッセ,,43.79643,143.8573,5218_02,,0,,
7800_01,,木工団地,,43.79931122,143.828587866667,7800_01,,0,,
7800_02,,木工団地,,43.79918622,143.8297212,7800_02,,0,,
7812_01,,元町,,43.78702772,143.6246098,7812_01,,0,,
7812_02,,元町,,43.78717272,143.624701228571,7812_02,,0,,
7803_01,,本町１丁目,,43.80083,143.892305714286,7803_01,,0,,
7803_02,,本町１丁目,,43.8008816666667,143.892052380952,7803_02,,0,,
7804_01,,本町３丁目,,43.80082367,143.884404057143,7804_01,,0,,
7804_02,,本町３丁目,,43.8009736700001,143.884649771429,7804_02,,0,,
7806_01,,本町４丁目,,43.7994866666667,143.881724761905,7806_01,,0,,
7806_02,,本町４丁目,,43.799765,143.883280952381,7806_02,,0,,
6856_01,,本町５丁目,,44.3513067033333,143.354179147619,6856_01,,0,,
6856_02,,本町５丁目,,44.3514817033333,143.354445814286,6856_02,,0,,
6860_01,,本町６丁目,,44.3498566,143.354349190477,6860_01,,0,,
6860_02,,本町６丁目,,44.3498482666667,143.354511095238,6860_02,,0,,
7816_01,,元紋別,,44.3227948566667,143.376844847619,7816_01,,0,,
7816_02,,元紋別,,44.3229115233333,143.37703532381,7816_02,,0,,
7818_01,,もみじ公園,,43.826805,143.874205714286,7818_01,,0,,
7818_02,,もみじ公園,,43.8269237979039,143.874329811478,7818_02,,0,,
7820_01,,もみじ団地,,43.82836,143.87404,7820_01,,0,,
7820_02,,もみじ団地,,43.8280737979039,143.874206001954,7820_02,,0,,
7822_01,,紋別,,44.35215958,143.3522341,7822_01,,0,,
7823_01,,紋別空港,,44.3066812566667,143.407123142857,7823_01,,0,,
8010_01,,安国,,43.9942916666667,143.537252380952,8010_01,,0,,
8010_02,,安国,,43.993825,143.537242857143,8010_02,,0,,
8020_01,,安国小学校,,43.9887233333333,143.538233333333,8020_01,,0,,
8020_02,,安国小学校,,43.9887733333333,143.537976190476,8020_02,,0,,
8030_01,,矢矧の沢入口,,43.8864883333334,143.523346666667,8030_01,,0,,
8030_02,,矢矧の沢入口,,43.886415,143.523038095238,8030_02,,0,,
8040_01,,山下町,,43.804535,143.888054285714,8040_01,,0,,
8040_02,,山下町,,43.8048300000001,143.88778,8040_02,,0,,
9311_01,,大和１１号線,,43.88652724,143.8825097,9311_01,,0,,
9311_02,,大和１１号線,,43.88647724,143.882538271429,9311_02,,0,,
212_01,,大和１２号線,,43.88408,143.8758,212_01,,0,,
212_02,,大和１２号線,,43.88398,143.875828571429,212_02,,0,,
5206_01,,大和会館,,43.89274,143.890442857143,5206_01,,0,,
5206_02,,大和会館,,43.892565,143.8903,5206_02,,0,,
8050_01,,湧愛園,,44.15397,143.573457142857,8050_01,,0,,
8050_02,,湧愛園,,44.15392,143.573695238095,8050_02,,0,,
8055_01,,夕陽ヶ丘４号線,,43.8087716666667,143.868338095237,8055_01,,0,,
8055_02,,夕陽ヶ丘４号線,,43.80908,143.870633333334,8055_02,,0,,
8056_01,,夕陽ヶ丘５号線,,43.808305,143.8603,8056_01,,0,,
8056_02,,夕陽ヶ丘５号線,,43.80855,143.861894285715,8056_02,,0,,
8195_01,,夕陽ヶ丘６号線,,43.80798,143.85502,8195_01,,0,,
8195_02,,夕陽ヶ丘６号線,,43.80829,143.856722857143,8195_02,,0,,
8200_01,,夕陽ヶ丘７号線,,43.8075116666667,143.848103809523,8200_01,,0,,
8200_02,,夕陽ヶ丘７号線,,43.8078361544759,143.84964287281,8200_02,,0,,
8200_03,,夕陽ヶ丘７号線,,43.8082464122658,143.848505415809,8200_03,,0,,
8200_04,,夕陽ヶ丘７号線,,43.8068699315922,143.849022116192,8200_04,,0,,
7212_01,,夕陽ヶ丘８号線,,43.8070386570188,143.841150999069,7212_01,,0,,
7212_02,,夕陽ヶ丘８号線,,43.807385,143.842671428572,7212_02,,0,,
7212_03,,夕陽ヶ丘８号線,,43.806595,143.842054285714,7212_03,,0,,
1822_02,,夕陽ヶ丘９号線,,43.806965,143.836374285714,1822_02,,0,,
1822_03,,夕陽ヶ丘９号線,,43.807975514279,143.834799528122,1822_03,,0,,
8060_01,,湧別,,44.2255783333333,143.617628571428,8060_01,,0,,
9303_01,,湧別３号線,,44.21591007,143.611694514286,9303_01,,0,,
9303_02,,湧別３号線,,44.2151767366667,143.611446895238,9303_02,,0,,
9204_01,,湧別４号線,,44.2115037966667,143.608964385714,9204_01,,0,,
9204_02,,湧別４号線,,44.2112137966667,143.608962480952,9204_02,,0,,
9505_01,,湧別５号線,,44.2067782766667,143.606035185714,9505_01,,0,,
9505_02,,湧別５号線,,44.2053032766667,143.605406614286,9505_02,,0,,
6264_01,,湧別６号線,,44.2020966666667,143.603176190476,6264_01,,0,,
6264_02,,湧別６号線,,44.2011383333333,143.602833333334,6264_02,,0,,
1018_01,,湧別曙町,,44.22832,143.619370476191,1018_01,,0,,
1018_02,,湧別曙町,,44.228285,143.619557142857,1018_02,,0,,
2260_01,,湧別漁協,,44.2290383333333,143.614747619048,2260_01,,0,,
2260_02,,湧別漁協,,44.2291216666667,143.614814285714,2260_02,,0,,
8065_01,,湧別庁舎,,44.221455,143.615061904762,8065_01,,0,,
8065_02,,湧別庁舎,,44.2216483333333,143.615429523809,8065_02,,0,,
2060_01,,湧別町役場,,44.15097,143.571523809524,2060_01,,0,,
2060_02,,湧別町役場,,44.1507883333333,143.571733333333,2060_02,,0,,
8070_01,,豊大橋,,43.79324,143.8603,8070_01,,0,,
8070_02,,豊大橋,,43.79353,143.860208571429,8070_02,,0,,
8080_01,,吉野入口,,43.9785483333333,143.942552380952,8080_01,,0,,
8080_02,,吉野入口,,43.978265,143.942466666667,8080_02,,0,,
8003_01,,陸別,,43.467365,143.743045714286,8003_01,,0,,
9821_01,,流氷公園,,44.32014251,143.3879075,9821_01,,0,,
8100_01,,緑園通,,43.80969,143.882277142857,8100_01,,0,,
8100_02,,緑園通,,43.8098100000001,143.882328571429,8100_02,,0,,
8115_01,,緑陵高校,,43.8141199133333,143.838597042857,8115_01,,0,,
8115_02,,緑陵高校,,43.81403658,143.838625614286,8115_02,,0,,
8110_01,,緑陵高校入口,,43.8143352333333,143.842006271429,8110_01,,0,,
8110_02,,緑陵高校入口,,43.8142519,143.8419777,8110_02,,0,,
8135_01,,留辺蘂,,43.78589,143.6219,8135_01,,0,,
4052_01,,留辺蘂運動公園,,43.77715,143.611865714286,4052_01,,0,,
4052_02,,留辺蘂運動公園,,43.777095,143.61202,4052_02,,0,,
8140_01,,留辺蘂高校,,43.7788000000001,143.607571428571,8140_01,,0,,
8140_02,,留辺蘂高校,,43.7786700000001,143.60752,8140_02,,0,,
4000_01,,留辺蘂町体育館,,43.7765,143.609502857143,4000_01,,0,,
4000_02,,留辺蘂町体育館,,43.77644,143.609531428571,4000_02,,0,,
4208_01,,留辺蘂住民交流センター,,43.782325,143.624437142857,4208_01,,0,,
4208_02,,留辺蘂住民交流センター,,43.78214,143.624585714286,4208_02,,0,,
8190_01,,若葉５丁目,,43.81211,143.852014285714,8190_01,,0,,
8205_01,,若葉７丁目,,43.810785,143.84828,8205_01,,0,,
1604_01,,遠軽,,44.0594133333333,143.523471428571,1604_01,,0,,
1824_01,,遠軽卸売市場,,44.07019,143.532997142857,1824_01,,0,,
1824_02,,遠軽卸売市場,,44.0701933333333,143.533336190477,1824_02,,0,,
9934_01,,遠軽厚生病院,,44.0618886533334,143.522858109524,9934_01,,0,,
9934_02,,遠軽厚生病院,,44.0618036533333,143.522962871428,9934_02,,0,,
2830_01,,遠軽高校,,44.0503133333333,143.526823809524,2830_01,,0,,
2830_02,,遠軽高校,,44.0501133333333,143.527145714286,2830_02,,0,,
9850_01,,遠軽寿町,,44.0412238666667,143.520826938095,9850_01,,0,,
9850_02,,遠軽寿町,,44.0411655333333,143.520693604762,9850_02,,0,,
9850_03,,遠軽寿町,,44.0409309904767,143.519585975483,9850_03,,0,,
9850_04,,遠軽寿町,,44.0412112741702,143.519605408035,9850_04,,0,,
5210_01,,遠軽西１線,,44.0439816666667,143.513625714286,5210_01,,0,,
5210_02,,遠軽西１線,,44.0440816666666,143.513776190476,5210_02,,0,,
5212_01,,遠軽西２線,,44.0457116666667,143.506813333333,5212_01,,0,,
5212_02,,遠軽西２線,,44.0457116666666,143.506466666667,5212_02,,0,,
6216_01,,遠軽東１線,,44.0488616666667,143.531373333333,6216_01,,0,,
6216_02,,遠軽東１線,,44.0489283333333,143.530891428571,6216_02,,0,,
6242_01,,遠軽東小学校,,44.0652516666667,143.531276190477,6242_01,,0,,
6242_02,,遠軽東小学校,,44.0652916666667,143.531363809524,6242_02,,0,,
6244_01,,遠軽東体育館,,44.06609,143.5311,6244_01,,0,,
6244_02,,遠軽東体育館,,44.066,143.531155238095,6244_02,,0,,
1672_01,,遠軽東町２丁目,,44.0528183333333,143.534585714286,1672_01,,0,,
1673_01,,遠軽東町３丁目,,44.0494233333333,143.536252380952,1673_01,,0,,
7400_01,,遠軽東町４丁目,,44.0473954066667,143.531058957143,7400_01,,0,,
7400_02,,遠軽東町４丁目,,44.0473820733333,143.531198004762,7400_02,,0,,
1676_01,,遠軽東町分岐,,44.0488433333333,143.5342,1676_01,,0,,
7254_01,,遠軽南小学校入口,,44.04313889,143.528499342857,7254_01,,0,,
7254_02,,遠軽南小学校入口,,44.0430905566667,143.528630771429,7254_02,,0,,
7258_01,,遠軽南中学校,,44.0395745133333,143.526006661905,7258_01,,0,,
7258_02,,遠軽南中学校,,44.0395245133333,143.525823804762,7258_02,,0,,
9862_01,,遠軽南町１丁目,,44.05153492,143.523066304762,9862_01,,0,,
9862_02,,遠軽南町１丁目,,44.0514332533334,143.523007257143,9862_02,,0,,
9866_01,,遠軽南町３丁目,,44.0506913233333,143.5209174,9866_01,,0,,
9866_02,,遠軽南町３丁目,,44.0506496566667,143.520553590476,9866_02,,0,,
8035_01,,遠軽南町４丁目,,44.04482,143.521971428571,8035_01,,0,,
8035_02,,遠軽南町４丁目,,44.045295,143.522047619048,8035_02,,0,,
506_01,,温根湯温泉入口,,43.755745,143.510305714286,506_01,,0,,
506_02,,温根湯温泉入口,,43.755705,143.510482857143,506_02,,0,,
2131_01,,開成,,43.7395116666667,143.883042857143,2131_01,,0,,
2131_02,,開成,,43.7402616666666,143.882795238095,2131_02,,0,,
2341_01,,開成第一,,43.756115,143.870165714286,2341_01,,0,,
2341_02,,開成第一,,43.75609,143.869923809524,2341_02,,0,,
2343_01,,開成第三,,43.7286950000001,143.885223809523,2343_01,,0,,
2343_02,,開成第三,,43.727765,143.885294285714,2343_02,,0,,
2342_01,,開成峠,,43.7144983333332,143.885228571429,2342_01,,0,,
2342_02,,開成峠,,43.7144033333334,143.885045714286,2342_02,,0,,
1608_01,,学田１丁目,,44.07827,143.5249,1608_01,,0,,
1608_02,,学田１丁目,,44.0783783333333,143.524985714286,1608_02,,0,,
2080_01,,学田２丁目,,44.0762783333333,143.531185714286,2080_01,,0,,
2080_02,,学田２丁目,,44.0762016666667,143.53174952381,2080_02,,0,,
2074_01,,学田第１公園,,44.07965,143.5206,2074_01,,0,,
2074_02,,学田第１公園,,44.0797666666667,143.520638095238,2074_02,,0,,
4050_01,,学田団地中央,,44.077645,143.520794285714,4050_01,,0,,
4050_02,,学田団地中央,,44.0776483333333,143.520940952381,4050_02,,0,,
8145_01,,学田霊園,,44.07423,143.5243,8145_01,,0,,
8145_02,,学田霊園,,44.074225,143.524446666667,8145_02,,0,,
1218_01,,岩見通北１丁目,,44.060315,143.521901904762,1218_01,,0,,
1218_02,,岩見通北１丁目,,44.0601433333333,143.521947619047,1218_02,,0,,
1220_01,,岩見通北４丁目,,44.064185,143.523428571429,1220_01,,0,,
1220_02,,岩見通北４丁目,,44.0641616666667,143.5236,1220_02,,0,,
1222_01,,岩見通北５丁目,,44.06723,143.524,1222_01,,0,,
1222_02,,岩見通北５丁目,,44.067205,143.524156190476,1222_02,,0,,
1224_01,,岩見通北７丁目,,44.06938,143.5254,1224_01,,0,,
1224_02,,岩見通北７丁目,,44.0693633333333,143.525523809524,1224_02,,0,,
1226_01,,岩見通北８丁目,,44.0714266666667,143.5259,1226_01,,0,,
1226_02,,岩見通北８丁目,,44.0713816666667,143.526010476191,1226_02,,0,,
2331_01,,基幹集落センター入口,,44.0506683333333,143.539271428571,2331_01,,0,,
4858_01,,技術専門学院,,43.78365,143.8713,4858_01,,0,,
4858_02,,技術専門学院,,43.7838200000001,143.871745714286,4858_02,,0,,
6812_01,,錦町,,43.7856533333333,143.874361904761,6812_01,,0,,
6812_02,,錦町,,43.7855815345101,143.87405070302,6812_02,,0,,
5250_01,,錦町団地入口,,44.2187366666667,143.613428571429,5250_01,,0,,
5250_02,,錦町団地入口,,44.2180533333334,143.613219047619,5250_02,,0,,
2836_01,,公設グラウンド入口,,44.0542716666667,143.516871428571,2836_01,,0,,
2836_02,,公設グラウンド入口,,44.0543983333333,143.516661904762,2836_02,,0,,
2121_01,,工業大学,,43.82206,143.906894285714,2121_01,,0,,
2121_02,,工業大学,,43.821895,143.906917142857,2121_02,,0,,
7170_01,,最上,,43.7001896666667,143.924817428571,7170_01,,0,,
7170_02,,最上,,43.700073,143.924646,7170_02,,0,,
7117_01,,最上１７番,,43.7030733333333,143.938337904762,7117_01,,0,,
7117_02,,最上１７番,,43.702975,143.938181714286,7117_02,,0,,
7106_01,,最上６番,,43.6988233333333,143.980430047619,7106_01,,0,,
7106_02,,最上６番,,43.69879,143.980411,7106_02,,0,,
1924_01,,三楽町,,43.813115,143.893002857143,1924_01,,0,,
1924_02,,三楽町,,43.813055,143.89314,1924_02,,0,,
7049_01,,三輪通,,43.801975,143.856445714286,7049_01,,0,,
2850_01,,寿町,,43.8093683333333,143.877790476191,2850_01,,0,,
2850_02,,寿町,,43.8095700000001,143.878131428571,2850_02,,0,,
2850_03,,寿町,,43.80985,143.876302857143,2850_03,,0,,
2850_04,,寿町,,43.80891,143.8766,2850_04,,0,,
2852_01,,寿町公民館入口,,44.0402383333333,143.52389047619,2852_01,,0,,
2852_02,,寿町公民館入口,,44.04013,143.523871428572,2852_02,,0,,
7604_01,,女満別空港,,43.8816968476786,144.158649985595,7604_01,,0,,
2866_01,,小向１２線,,44.2816166666667,143.447547619048,2866_01,,0,,
2866_02,,小向１２線,,44.2814666666666,143.448023809524,2866_02,,0,,
7000_01,,松浦宅前,,43.8812752866667,143.863753880952,7000_01,,0,,
7000_02,,松浦宅前,,43.8811252866667,143.863620547619,7000_02,,0,,
7611_01,,松原医院,,43.8057736,143.855973971429,7611_01,,0,,
2048_01,,上仁頃,,43.8738933333333,143.854038095238,2048_01,,0,,
2048_02,,上仁頃,,43.8739183333333,143.85420952381,2048_02,,0,,
4824_01,,常呂総合支所,,44.11922,144.069504761905,4824_01,,0,,
4824_02,,常呂総合支所,,44.11917,144.0696,4824_02,,0,,
7202_01,,水谷,,44.2532115233333,143.483775795238,7202_01,,0,,
7202_02,,水谷,,44.25367819,143.4835377,7202_02,,0,,
5470_01,,西達美,,43.712675,144.006576190476,5470_01,,0,,
5470_02,,西達美,,43.7126,144.00430952381,5470_02,,0,,
240_01,,西町４０号,,44.0471516666667,143.503906666667,240_01,,0,,
240_02,,西町４０号,,44.047155,143.503704761905,240_02,,0,,
5236_01,,西町住民センター入口,,44.0514783333333,143.508639047619,5236_01,,0,,
5236_02,,西町住民センター入口,,44.0512733333333,143.507995238095,5236_02,,0,,
5234_01,,西町診療所,,44.0537633333333,143.512976190476,5234_01,,0,,
5234_02,,西町診療所,,44.053835,143.512804761905,5234_02,,0,,
1165_01,,青葉通,,43.81574,143.895514285714,1165_01,,0,,
1165_02,,青葉通,,43.81565,143.895651428571,1165_02,,0,,
3000_01,,斉藤宅前（上仁頃）,,43.8582866666667,143.870447619048,3000_01,,0,,
3000_02,,斉藤宅前（上仁頃）,,43.85837,143.8706,3000_02,,0,,
7830_01,,藻岩通,,43.78875378,143.8228989,7830_01,,0,,
4808_01,,大通,,43.80462,143.896657142858,4808_01,,0,,
4808_02,,大通,,43.8041583333333,143.895293333334,4808_02,,0,,
4808_03,,大通,,43.8038933333334,143.895266666667,4808_03,,0,,
4808_04,,大通,,43.8043450000001,143.89544,4808_04,,0,,
4808_05,,大通,,43.804075,143.895445714286,4808_05,,0,,
4808_06,,大通,,43.8042250000001,143.8956,4808_06,,0,,
4808_07,,大通,,43.80311,143.8942,4808_07,,0,,
1802_01,,大通南２丁目,,44.05698,143.521780952381,1802_01,,0,,
1802_02,,大通南２丁目,,44.05683,143.5214,1802_02,,0,,
1804_01,,大通南３丁目,,44.0553533333333,143.520751428571,1804_01,,0,,
1804_02,,大通南３丁目,,44.0553616666667,143.520576190476,1804_02,,0,,
1806_01,,大通南４丁目,,44.054235,143.519263809524,1806_01,,0,,
1806_02,,大通南４丁目,,44.0546133333333,143.519692380952,1806_02,,0,,
2082_01,,大通北１１丁目,,44.07391,143.531945714286,2082_01,,0,,
2082_02,,大通北１１丁目,,44.0741483333333,143.53230952381,2082_02,,0,,
2086_01,,大通北９丁目,,44.071855,143.530705714286,2086_01,,0,,
2086_02,,大通北９丁目,,44.071735,143.530833333333,2086_02,,0,,
4470_01,,達美,,43.7105216666667,144.01100952381,4470_01,,0,,
4470_02,,達美,,43.71048,144.0108,4470_02,,0,,
4173_01,,中央三輪３丁目,,43.80142,143.8427,4173_01,,0,,
4174_01,,中央三輪４丁目,,43.79865,143.84306,4174_01,,0,,
4200_01,,中央小学校,,43.81067,143.89022,4200_01,,0,,
4200_02,,中央小学校,,43.8106400000001,143.890408571429,4200_02,,0,,
4200_03,,中央小学校,,43.8104832890852,143.891845807626,4200_03,,0,,
4200_04,,中央小学校,,43.8105632890852,143.891411521912,4200_04,,0,,
5563_01,,中野牧場,,43.74934,143.8791,5563_01,,0,,
5563_02,,中野牧場,,43.7493733333333,143.878957142857,5563_02,,0,,
4632_01,,津別児童館,,43.7054666666667,144.026378095238,4632_01,,0,,
4632_02,,津別児童館,,43.70538,144.026414285714,4632_02,,0,,
4657_01,,津別西町,,43.7056416666667,144.018414285714,4657_01,,0,,
4657_02,,津別西町,,43.70545,144.0185,4657_02,,0,,
4641_01,,津別中学校入口,,43.703535,144.029471428571,4641_01,,0,,
4641_02,,津別中学校入口,,43.703685,144.029614285714,4641_02,,0,,
4677_01,,津別緑町,,43.7069316666667,144.016438095238,4677_01,,0,,
4677_02,,津別緑町,,43.70666,144.016594285714,4677_02,,0,,
6206_01,,東１０号線,,43.8375266666667,143.927638095238,6206_01,,0,,
6206_02,,東１０号線,,43.83681,143.9272,6206_02,,0,,
6210_01,,東１２号線,,43.8458766666667,143.935633333333,6210_01,,0,,
6210_02,,東１２号線,,43.84496,143.9351,6210_02,,0,,
9317_01,,東１７号線,,43.86900703,143.9503987,9317_01,,0,,
9317_02,,東１７号線,,43.8680986966666,143.950446319048,9317_02,,0,,
9318_01,,東１８号線,,43.8747973066667,143.95112052381,9318_01,,0,,
9318_02,,東１８号線,,43.87383064,143.951339571429,9318_02,,0,,
7252_01,,南ヶ丘４丁目,,44.3378908033333,143.353423390476,7252_01,,0,,
7252_02,,南ヶ丘４丁目,,44.3380491366667,143.353566247619,7252_02,,0,,
7250_01,,南ヶ丘団地,,44.04576529,143.530105561905,7250_01,,0,,
7250_02,,南ヶ丘団地,,44.0456969566667,143.530208419047,7250_02,,0,,
205_01,,南岸通５号線,,43.7881433333333,143.865126666667,205_01,,0,,
205_02,,南岸通５号線,,43.7878866666667,143.865319047619,205_02,,0,,
7302_01,,南大通,,43.7950068866667,143.878414295238,7302_01,,0,,
7302_02,,南大通,,43.7951485533334,143.878151438095,7302_02,,0,,
6000_01,,柏陽高校,,43.8238199999999,143.9143,6000_01,,0,,
6000_02,,柏陽高校,,43.82431,143.9151,6000_02,,0,,
6000_03,,柏陽高校,,43.82516,143.9149,6000_03,,0,,
6000_04,,柏陽高校,,43.82529,143.914882857143,6000_04,,0,,
3232_01,,白樺団地,,44.07549,143.5232,3232_01,,0,,
3232_02,,白樺団地,,44.0755566666667,143.523342857143,3232_02,,0,,
9511_01,,豊地１１号線,,43.7862650433333,143.8233337,9511_01,,0,,
9412_01,,豊地１２号線,,43.7856471366667,143.816817533333,9412_01,,0,,
9306_01,,豊地６号線,,43.7877997,143.8576148,9306_01,,0,,
9306_02,,豊地６号線,,43.7879047,143.857323371428,9306_02,,0,,
9707_01,,豊地７号線,,43.78733946,143.8503533,9707_01,,0,,
9707_02,,豊地７号線,,43.7875727933333,143.85196282381,9707_02,,0,,
9608_01,,豊地８号線,,43.78694715,143.8441257,9608_01,,0,,
9608_02,,豊地８号線,,43.78712215,143.845039985714,9608_02,,0,,
9309_01,,豊地９号線,,43.78702605,143.8370476,9309_01,,0,,
9309_02,,豊地９号線,,43.7870843833333,143.837971409524,9309_02,,0,,
6820_01,,豊地会館,,43.78922885,143.8274169,6820_01,,0,,
6816_01,,豊地小学校,,43.78736756,143.832508280952,6816_01,,0,,
6825_01,,豊地神社,,43.79027011,143.8334834,6825_01,,0,,
3004_01,,北１線分岐,,43.71032,143.6446,3004_01,,0,,
3004_02,,北１線分岐,,43.7106400000001,143.644005714286,3004_02,,0,,
2238_01,,北見,,43.80453,143.896571428572,2238_01,,0,,
9844_01,,北見郵便局,,43.80739533,143.892502371429,9844_01,,0,,
9844_02,,北見郵便局,,43.80750033,143.892622371428,9844_02,,0,,
6810_01,,北光中学校,,43.78347023,143.86796487619,6810_01,,0,,
6810_02,,北光中学校,,43.78352023,143.867351542857,6810_02,,0,,
7240_01,,北光通,,43.7837383333333,143.8657,7240_01,,0,,
7240_02,,北光通,,43.7836253209344,143.865880966187,7240_02,,0,,
2228_01,,北上,,43.770425,143.866761904762,2228_01,,0,,
2228_02,,北上,,43.77117,143.86796,2228_02,,0,,
2228_03,,北上,,43.7700957543595,143.867604926518,2228_03,,0,,
2244_01,,北上５線,,43.77306,143.8708,2244_01,,0,,
2244_02,,北上５線,,43.773995,143.871131428572,2244_02,,0,,
5214_01,,北進３号線,,43.8044533333333,143.87800952381,5214_01,,0,,
5214_02,,北進３号線,,43.804535,143.87796,5214_02,,0,,
5214_03,,北進３号線,,43.8050033333334,143.876895238095,5214_03,,0,,
5214_04,,北進３号線,,43.8051950000001,143.877182857142,5214_04,,0,,
552_01,,北斗高校,,43.809975,143.886337142857,552_01,,0,,
552_02,,北斗高校,,43.810055,143.885988571428,552_02,,0,,
1316_01,,麻生北見病院,,43.79924,143.8568,1316_01,,0,,
9910_01,,末広団地,,44.0490318,143.505527947619,9910_01,,0,,
9910_02,,末広団地,,44.0491134666667,143.505493661904,9910_02,,0,,
7402_01,,無加川橋,,43.79167896,143.8786886,7402_01,,0,,
7402_02,,無加川橋,,43.79202896,143.87849812381,7402_02,,0,,
2828_01,,無加川町,,43.78801,143.860577142857,2828_01,,0,,
2828_02,,無加川町,,43.7881750000001,143.8612,2828_02,,0,,
6814_01,,野付牛自動車学校,,43.78816063,143.8759545,6814_01,,0,,
6814_02,,野付牛自動車学校,,43.7882639633333,143.875756404762,6814_02,,0,,
2834_01,,湧別１１号線,,44.1792283333333,143.589053333333,2834_01,,0,,
2834_02,,湧別１１号線,,44.1792116666666,143.589276190476,2834_02,,0,,
9321_01,,湧別２１号線,,44.13227389,143.560096780952,9321_01,,0,,
9321_02,,湧別２１号線,,44.1331905566667,143.560858685714,9321_02,,0,,
9225_01,,湧別２５号線,,44.11637993,143.5502697,9225_01,,0,,
9225_02,,湧別２５号線,,44.1167715966667,143.550650652381,9225_02,,0,,
9328_01,,湧別２８号線,,44.10353348,143.533235066667,9328_01,,0,,
9328_02,,湧別２８号線,,44.10265848,143.5327684,9328_02,,0,,
9807_01,,湧別７号線,,44.1966678166667,143.599766261905,9807_01,,0,,
9807_02,,湧別７号線,,44.19620115,143.599728166667,9807_02,,0,,
1832_01,,陸上競技場入口,,43.8207949999999,143.899365714286,1832_01,,0,,
1832_02,,陸上競技場入口,,43.82085,143.89948,1832_02,,0,,
8005_01,,留辺蘂総合支所,,43.787645,143.616354285714,8005_01,,0,,
8005_02,,留辺蘂総合支所,,43.78774,143.616005714286,8005_02,,0,,
6747_01,,林宅前,,43.6988413333333,143.915829619048,6747_01,,0,,
6747_02,,林宅前,,43.698708,143.915782,6747_02,,0,,
9937_01,,ラルズマート留辺蘂店,,43.7817597725459,143.613427414013,9937_01,,0,,
9937_02,,ラルズマート留辺蘂店,,43.7817530861002,143.613295518512,9937_02,,0,,
1549_01,,おのでら医院,,43.7835330104846,143.612457115064,1549_01,,0,,
1549_02,,おのでら医院,,43.784197703231,143.61199157802,1549_02,,0,,
2405_01,,訓子府小学校,,43.725341454179,143.738573220516,2405_01,,0,,
2405_02,,訓子府小学校,,43.7253769788183,143.738457106763,2405_02,,0,,
